id,city,state,country,lon,lat
NCT00484263,Melbourne,Victoria,Australia,144.9630576,-37.8136276
NCT00728715,Valencia,NA,Spain,-0.7532808999999999,39.4840108
NCT00749866,Edinburgh,Lothian,United Kingdom,-3.188267,55.953252
NCT00816309,Edinburgh,Scotland,United Kingdom,-3.188267,55.953252
NCT00868075,Edinburgh,Scotland,United Kingdom,-3.188267,55.953252
NCT00885521,Melbourne,Victoria,Australia,144.9630576,-37.8136276
NCT00885521,Melbourne,Victoria,Australia,144.9630576,-37.8136276
NCT00885521,Perth,Western Australia,Australia,115.861309,-31.9523123
NCT00889967,Phoenix,Arizona,United States,-112.0740373,33.4483771
NCT00889967,Los Angeles,California,United States,-118.2436849,34.0522342
NCT00889967,Sacramento,California,United States,-121.4943996,38.5815719
NCT00889967,Torrance,California,United States,-118.3406288,33.8358492
NCT00889967,Waterbury,Connecticut,United States,-73.0514965,41.5581525
NCT00889967,Brandon,Florida,United States,-82.2859247,27.937801
NCT00889967,Miami,Florida,United States,-80.1917902,25.7616798
NCT00889967,Council Bluffs,Iowa,United States,-95.8608333,41.2619444
NCT00889967,Summit,New Jersey,United States,-74.3646122,40.7146376
NCT00889967,New York,New York,United States,-74.0059728,40.7127753
NCT00889967,Elizabeth City,North Carolina,United States,-76.2510461,36.2946008
NCT00889967,Toledo,Ohio,United States,-83.5378674,41.6528052
NCT00889967,Philadelphia,Pennsylvania,United States,-75.1652215,39.9525839
NCT00889967,McKinney,Texas,United States,-96.6389342,33.1983388
NCT00889967,Calgary,Alberta,Canada,-114.0718831,51.04473309999999
NCT00889967,Kelowna,British Columbia,Canada,-119.4960106,49.8879519
NCT00889967,Vancouver,British Columbia,Canada,-123.1207375,49.2827291
NCT00889967,Vancouver,British Columbia,Canada,-123.1207375,49.2827291
NCT00889967,Ottawa,Ontario,Canada,-75.69719309999999,45.4215296
NCT00889967,Montreal,Quebec,Canada,-73.567256,45.5016889
NCT00889967,St. Jerome,Quebec,Canada,-74.004948,45.775357
NCT00889967,Berlin,NA,Germany,13.404954,52.52000659999999
NCT00889967,Donaustauf,NA,Germany,12.2073854,49.0324537
NCT00889967,Heidelberg,NA,Germany,8.6724335,49.3987524
NCT00889967,Neuwied,NA,Germany,7.4664546,50.4361866
NCT00889967,Belfast,Britain,United Kingdom,-5.93012,54.59728500000001
NCT00889967,Birmingham,Britain,United Kingdom,-1.890401,52.48624299999999
NCT00889967,Bradford,Britain,United Kingdom,-1.7563583,53.7937996
NCT00889967,Manchester,Britain,United Kingdom,-2.2426305,53.4807593
NCT00889967,Newcastle upon Tyne,"Freeman Road, High Heaton",United Kingdom,-1.5949955,55.0001588
NCT00889967,London,High Street Lewisham,United Kingdom,-0.0131307,51.4579512
NCT00889967,Birmingham,NA,United Kingdom,-1.890401,52.48624299999999
NCT00889967,Glasgow,NA,United Kingdom,-4.251806,55.864237
NCT00889967,London,NA,United Kingdom,-0.1275862,51.5072178
NCT00889967,Salford,NA,United Kingdom,-2.2901264,53.48752349999999
NCT00889967,Stoke on Trent,NA,United Kingdom,-2.1827408,53.0033369
NCT00889967,Tyne and Wear,NA,United Kingdom,-1.5666991,54.9951837
NCT00930982,Little Rock,Arkansas,United States,-92.2880157,34.7444618
NCT00930982,La Jolla,California,United States,-117.2712717,32.8328112
NCT00930982,Denver,Colorado,United States,-104.990251,39.7392358
NCT00930982,Farmington,Connecticut,United States,-72.79502699999999,41.7360305
NCT00930982,Washington,District of Columbia,United States,-77.0368707,38.9071923
NCT00930982,Naples,Florida,United States,-81.7948103,26.1420358
NCT00930982,Michigan City,Indiana,United States,-86.8950297,41.70753939999999
NCT00930982,Mineola,New York,United States,-73.64068449999999,40.7492678
NCT00930982,Houston,Texas,United States,-95.3698028,29.7604267
NCT00930982,Tyler,Texas,United States,-95.30106239999999,32.3512601
NCT00930982,Payson,Utah,United States,-111.7321518,40.0443989
NCT00930982,Concord,New South Wales,Australia,151.1033131,-33.8559625
NCT00930982,South Brisbane,Queensland,Australia,153.0134124,-27.4743523
NCT00930982,Woollongabba,Queensland,Australia,153.035968,-27.486534
NCT00930982,Adelaide,South Australia,Australia,138.6007456,-34.9284989
NCT00930982,Adelaide,South Australia,Australia,138.6007456,-34.9284989
NCT00930982,Heidelberg,Victoria,Australia,145.0696116,-37.7566014
NCT00930982,Prahran,Victoria,Australia,145.0027616,-37.8507947
NCT00930982,Nedlands,Western Australia,Australia,115.8057894,-31.9787216
NCT00930982,Löwenstein,Baden-Württemberg,Germany,9.379206,49.09671220000001
NCT00930982,Rüdersdorf,Brandenburg,Germany,13.8373971,52.481592
NCT00930982,Frankfurt,Hessen,Germany,8.6821267,50.1109221
NCT00930982,Gelnhausen,Hessen,Germany,9.1863725,50.2045664
NCT00930982,Hannover,Niedersachsen,Germany,9.732010400000002,52.3758916
NCT00930982,Hannover,Niedersachsen,Germany,9.732010400000002,52.3758916
NCT00930982,Witten,Nordrhein-Westfalen,Germany,7.353197000000001,51.4438926
NCT00930982,Koblenz,Rheinland-Pfalz,Germany,7.5889959,50.3569429
NCT00930982,Mainz,Rheinland-Pfalz,Germany,8.2472526,49.9928617
NCT00930982,Geesthacht,Schleswig-Holstein,Germany,10.3611665,53.4379562
NCT00930982,Großhansdorf,Schleswig-Holstein,Germany,10.2730016,53.651326
NCT00930982,Bad Berka,Thüringen,Germany,11.281641,50.8982547
NCT00930982,Berlin,NA,Germany,13.404954,52.52000659999999
NCT00930982,Berlin,NA,Germany,13.404954,52.52000659999999
NCT00930982,Berlin,NA,Germany,13.404954,52.52000659999999
NCT00930982,Berlin,NA,Germany,13.404954,52.52000659999999
NCT00930982,Santiago de Compostela,A Coruña,Spain,-8.5441729,42.8768606
NCT00930982,Palma de Mallorca,Illes Baleares,Spain,2.6501603,39.5696005
NCT00930982,Badajoz,NA,Spain,-6.9706535,38.8794495
NCT00930982,Barcelona,NA,Spain,2.168568,41.3873974
NCT00930982,Uppsala,NA,Sweden,17.6389267,59.85856380000001
NCT00930982,Bristol,Avon,United Kingdom,-2.367693176771563,51.47341767336805
NCT00930982,Cambridge,Cambridgeshire,United Kingdom,0.1312729,52.1950788
NCT00930982,Liverpool,Merseyside,United Kingdom,-2.9915726,53.4083714
NCT00930982,Belfast,North Ireland,United Kingdom,-5.93012,54.59728500000001
NCT00930982,Newcastle Upon Tyne,Tyne and Wear,United Kingdom,-1.61778,54.978252
NCT00930982,Edinburgh,NA,United Kingdom,-3.188267,55.953252
NCT00930982,Norwich,NA,United Kingdom,1.2978802,52.6292567
NCT01299181,Edinburgh,Scotland,United Kingdom,-3.188267,55.953252
NCT01299194,Edinburgh,Scotland,United Kingdom,-3.188267,55.953252
NCT01313624,Phoenix,Arizona,United States,-112.0740373,33.4483771
NCT01313624,Phoenix,Arizona,United States,-112.0740373,33.4483771
NCT01313624,Phoenix,Arizona,United States,-112.0740373,33.4483771
NCT01313624,Scottsdale,Arizona,United States,-111.9260519,33.4941704
NCT01313624,Los Angeles,California,United States,-118.2436849,34.0522342
NCT01313624,Sacramento,California,United States,-121.4943996,38.5815719
NCT01313624,Ventura,California,United States,-119.2945199,34.2804923
NCT01313624,Denver,Colorado,United States,-104.990251,39.7392358
NCT01313624,Farmington,Connecticut,United States,-72.79502699999999,41.7360305
NCT01313624,Clearwater,Florida,United States,-82.8001026,27.9658533
NCT01313624,Gainesville,Florida,United States,-82.32482619999999,29.6516344
NCT01313624,Kissimmee,Florida,United States,-81.40757099999999,28.2919557
NCT01313624,Miami,Florida,United States,-80.1917902,25.7616798
NCT01313624,Orlando,Florida,United States,-81.3789269,28.5383832
NCT01313624,Weston,Florida,United States,-80.3997748,26.1003654
NCT01313624,Atlanta,Georgia,United States,-84.3879824,33.7489954
NCT01313624,Baltimore,Maryland,United States,-76.6121893,39.2903848
NCT01313624,Rochester,Minnesota,United States,-92.4801989,44.0121221
NCT01313624,Chesterfield,Missouri,United States,-90.5770675,38.6631083
NCT01313624,Albany,New York,United States,-73.7562317,42.6525793
NCT01313624,Jamaica,New York,United States,-73.7889689,40.702677
NCT01313624,Mineola,New York,United States,-73.64068449999999,40.7492678
NCT01313624,New York,New York,United States,-74.0059728,40.7127753
NCT01313624,Cincinnati,Ohio,United States,-84.5120196,39.1031182
NCT01313624,Portland,Oregon,United States,-122.6783853,45.515232
NCT01313624,Philadelphia,Pennsylvania,United States,-75.1652215,39.9525839
NCT01313624,Philadelphia,Pennsylvania,United States,-75.1652215,39.9525839
NCT01313624,Philadelphia,Pennsylvania,United States,-75.1652215,39.9525839
NCT01313624,Charleston,South Carolina,United States,-79.93105120000001,32.7764749
NCT01313624,McKinney,Texas,United States,-96.6389342,33.1983388
NCT01313624,San Antonio,Texas,United States,-98.4945922,29.4251905
NCT01313624,Tyler,Texas,United States,-95.30106239999999,32.3512601
NCT01313624,Charlottesville,Virginia,United States,-78.47667810000002,38.0293059
NCT01313624,Falls Church,Virginia,United States,-77.1710914,38.88233400000001
NCT01313624,Seattle,Washington,United States,-122.3320708,47.6062095
NCT01313624,Tacoma,Washington,United States,-122.4442906,47.2528768
NCT01313624,Concord,New South Wales,Australia,151.1033131,-33.8559625
NCT01313624,Darlinghurst,New South Wales,Australia,151.2199017,-33.8790972
NCT01313624,Glebe,New South Wales,Australia,151.1869715,-33.8797767
NCT01313624,Kogarah,New South Wales,Australia,151.1372588,-33.9643523
NCT01313624,Perth,New South Wales,Australia,115.861309,-31.9523123
NCT01313624,Westmead,New South Wales,Australia,150.9869597,-33.8085661
NCT01313624,Brisbane,Queensland,Australia,153.0260341,-27.4704528
NCT01313624,Chermside,Queensland,Australia,153.0310009,-27.3858322
NCT01313624,Adelaide,South Australia,Australia,138.6007456,-34.9284989
NCT01313624,Daws Park,South Australia,Australia,138.5909263,-34.979522
NCT01313624,Toorak Gardens,South Australia,Australia,138.6374021,-34.9316498
NCT01313624,Clayton,Victoria,Australia,145.127492,-37.9145479
NCT01313624,Frankston,Victoria,Australia,145.135722,-38.1466246
NCT01313624,Westmead,Victoria,Australia,150.9869597,-33.8085661
NCT01313624,Nedlands,Western Australia,Australia,115.8057894,-31.9787216
NCT01313624,Calgary,Alberta,Canada,-114.0718831,51.04473309999999
NCT01313624,Edmonton,Alberta,Canada,-113.4938229,53.5461245
NCT01313624,Kelowna,British Columbia,Canada,-119.4960106,49.8879519
NCT01313624,Vancouver,British Columbia,Canada,-123.1207375,49.2827291
NCT01313624,Vancouver,British Columbia,Canada,-123.1207375,49.2827291
NCT01313624,Kingston,Ontario,Canada,-76.4859544,44.2311717
NCT01313624,Toronto,Ontario,Canada,-79.3831843,43.653226
NCT01313624,Windsor,Ontario,Canada,-83.03636329999999,42.3149367
NCT01313624,Montreal,Quebec,Canada,-73.567256,45.5016889
NCT01314716,Florence,Alabama,United States,-87.677251,34.79981
NCT01314716,Flagstaff,Arizona,United States,-111.651302,35.1982836
NCT01314716,Peoria,Arizona,United States,-112.2373779,33.5805955
NCT01314716,Phoenix,Arizona,United States,-112.0740373,33.4483771
NCT01314716,Scottsdale,Arizona,United States,-111.9260519,33.4941704
NCT01314716,Orange,California,United States,-117.8531007,33.7879139
NCT01314716,San Diego,California,United States,-117.1610838,32.715738
NCT01314716,San Francisco,California,United States,-122.4194155,37.7749295
NCT01314716,Washington,District of Columbia,United States,-77.0368707,38.9071923
NCT01314716,Jacksonville,Florida,United States,-81.65565099999999,30.3321838
NCT01314716,Miami,Florida,United States,-80.1917902,25.7616798
NCT01314716,Orlando,Florida,United States,-81.3789269,28.5383832
NCT01314716,Sarasota,Florida,United States,-82.5310117,27.336465
NCT01314716,St. Petersburg,Florida,United States,-82.64029149999999,27.7676008
NCT01314716,Tampa,Florida,United States,-82.4571776,27.950575
NCT01314716,Winter Park,Florida,United States,-81.33923519999999,28.5999998
NCT01314716,Decatur,Georgia,United States,-84.2963123,33.7748275
NCT01314716,Chicago,Illinois,United States,-87.6297982,41.8781136
NCT01314716,Council Bluffs,Iowa,United States,-95.8608333,41.2619444
NCT01314716,Louisville,Kentucky,United States,-85.7584557,38.2526647
NCT01314716,Rosedale,Maryland,United States,-76.51551909999999,39.3201074
NCT01314716,New Brunswick,New Jersey,United States,-74.4518188,40.4862157
NCT01314716,Summit,New Jersey,United States,-74.3646122,40.7146376
NCT01314716,Jamaica,New York,United States,-73.7889689,40.702677
NCT01314716,New York,New York,United States,-74.0059728,40.7127753
NCT01314716,Chapel Hill,North Carolina,United States,-79.0558445,35.9131996
NCT01314716,Portland,Oregon,United States,-122.6783853,45.515232
NCT01314716,Philadelphia,Pennsylvania,United States,-75.1652215,39.9525839
NCT01314716,Tyler,Texas,United States,-95.30106239999999,32.3512601
NCT01314716,Salt Lake City,Utah,United States,-111.8910474,40.7607793
NCT01314716,Tacoma,Washington,United States,-122.4442906,47.2528768
NCT01314716,Madison,Wisconsin,United States,-89.4007501,43.0721661
NCT01314716,Milwaukee,Wisconsin,United States,-87.9064736,43.0389025
NCT01314716,Concord,New South Wales,Australia,151.1033131,-33.8559625
NCT01314716,Darlinghurst,New South Wales,Australia,151.2199017,-33.8790972
NCT01314716,Kogarah,New South Wales,Australia,151.1372588,-33.9643523
NCT01314716,Perth,New South Wales,Australia,115.861309,-31.9523123
NCT01314716,Westmead,New South Wales,Australia,150.9869597,-33.8085661
NCT01314716,Adelaide,South Australia,Australia,138.6007456,-34.9284989
NCT01314716,Daw Park,South Australia,Australia,138.5909263,-34.979522
NCT01314716,Toorak Gardens,South Australia,Australia,138.6374021,-34.9316498
NCT01314716,Nedlands,Western Australia,Australia,115.8057894,-31.9787216
NCT01314716,Brussels,NA,Belgium,4.3571696,50.8476424
NCT01314716,Edegem,NA,Belgium,4.4313468,51.1561016
NCT01314716,Leuven,NA,Belgium,4.7137645,50.8822871
NCT01314716,Kelowna,British Columbia,Canada,-119.4960106,49.8879519
NCT01314716,Vancouver,British Columbia,Canada,-123.1207375,49.2827291
NCT01314716,Toronto,Ontario,Canada,-79.3831843,43.653226
NCT01314716,"Gap, PACA",NA,France,6.079758,44.559638
NCT01314716,Marseille,NA,France,5.36978,43.296482
NCT01314716,Montpellier Cedex 05,NA,France,3.876716,43.610769
NCT01314716,Nice,NA,France,2.213749,46.227638
NCT01314716,Pessac,NA,France,-0.630386,44.80583
NCT01314716,Toulouse,NA,France,1.444209,43.604652
NCT01314716,Berlin-Charlottenburg (Westend),NA,Germany,13.3041054,52.5166023
NCT01314716,Berlin,NA,Germany,13.404954,52.52000659999999
NCT01314716,Freiburg,NA,Germany,7.842104299999999,47.9990077
NCT01314716,Giessen,NA,Germany,8.678403099999999,50.5840512
NCT01314716,Hannover,NA,Germany,9.732010400000002,52.3758916
NCT01314716,Homburg,NA,Germany,7.3398427999999996,49.3295827
NCT01314716,Jena,NA,Germany,11.5892372,50.927054
NCT01314716,Leipzig,NA,Germany,12.3730747,51.3396955
NCT01314716,Leipzig,NA,Germany,12.3730747,51.3396955
NCT01314716,Munich,NA,Germany,11.5819806,48.1351253
NCT01314716,Ferrara,NA,Italy,11.619787,44.8381237
NCT01314716,Milan,NA,Italy,9.189982,45.464203500000004
NCT01314716,Modena,NA,Italy,10.9252269,44.647128
NCT01314716,Naples,NA,Italy,14.26812,40.8517983
NCT01314716,Pisa,NA,Italy,11.7566298,45.1738544
NCT01314716,Verona,NA,Italy,10.9916215,45.43838419999999
NCT01314716,Alkmaar,NA,Netherlands,4.753375399999999,52.6323813
NCT01314716,Rotterdam,NA,Netherlands,4.4777325,51.9244201
NCT01314716,Barcelona,NA,Spain,2.168568,41.3873974
NCT01314716,Barcelona,NA,Spain,2.168568,41.3873974
NCT01314716,Barcelona,NA,Spain,2.168568,41.3873974
NCT01314716,Girona,NA,Spain,2.8214264,41.9794005
NCT01314716,Madrid,NA,Spain,-3.7037902,40.4167754
NCT01314716,Valencia,NA,Spain,-0.7532808999999999,39.4840108
NCT01314716,Cambridgeshire,NA,United Kingdom,0.1312729,52.1950788
NCT01314716,Edinburgh,NA,United Kingdom,-3.188267,55.953252
NCT01314716,Exeter,NA,United Kingdom,-3.5274889,50.72603669999999
NCT01314716,Newcastle upon Tyne,NA,United Kingdom,-1.61778,54.978252
NCT01314716,Sheffield,NA,United Kingdom,-1.470085,53.38112899999999
NCT01314716,"Torquay, Devon",NA,United Kingdom,-3.525315,50.4619209
NCT01314716,Wolverhampton,NA,United Kingdom,-2.1256587,52.5868159
NCT01463371,Valencia,NA,Spain,-0.7532808999999999,39.4840108
NCT01515007,Peoria,Arizona,United States,-112.2373779,33.5805955
NCT01515007,Phoenix,Arizona,United States,-112.0740373,33.4483771
NCT01515007,Downey,California,United States,-118.1331593,33.9401088
NCT01515007,Los Angeles,California,United States,-118.2436849,34.0522342
NCT01515007,Poway,California,United States,-117.0358646,32.9628232
NCT01515007,Farmington,Connecticut,United States,-72.79502699999999,41.7360305
NCT01515007,Washington,District of Columbia,United States,-77.0368707,38.9071923
NCT01515007,Celebration,Florida,United States,-81.5407793,28.3188815
NCT01515007,Kissimmee,Florida,United States,-81.40757099999999,28.2919557
NCT01515007,Miami,Florida,United States,-80.1917902,25.7616798
NCT01515007,Sebring,Florida,United States,-81.440907,27.495592
NCT01515007,Kailua,Hawaii,United States,-157.743368,21.3945828
NCT01515007,Chicago,Illinois,United States,-87.6297982,41.8781136
NCT01515007,Columbia,Maryland,United States,-76.86104619999999,39.2037144
NCT01515007,Royal Oak,Michigan,United States,-83.1446485,42.4894801
NCT01515007,Rochester,Minnesota,United States,-92.4801989,44.0121221
NCT01515007,Lincoln,Nebraska,United States,-96.7025955,40.813616
NCT01515007,Cedar Knolls,New Jersey,United States,-74.4500053,40.821763
NCT01515007,New Hyde Park,New York,United States,-73.6879082,40.7351018
NCT01515007,New York,New York,United States,-74.0059728,40.7127753
NCT01515007,Syracuse,New York,United States,-76.14742439999999,43.0481221
NCT01515007,Charlotte,North Carolina,United States,-80.8431267,35.2270869
NCT01515007,Huntersville,North Carolina,United States,-80.84285040000002,35.410694
NCT01515007,Oklahoma City,Oklahoma,United States,-97.5164276,35.4675602
NCT01515007,Anderson,South Carolina,United States,-82.6501332,34.5034394
NCT01515007,Charleston,South Carolina,United States,-79.93105120000001,32.7764749
NCT01515007,Columbia,South Carolina,United States,-81.0348144,34.0007104
NCT01515007,Fort Worth,Texas,United States,-97.3307658,32.7554883
NCT01515007,Tyler,Texas,United States,-95.30106239999999,32.3512601
NCT01515007,Falls Church,Virginia,United States,-77.1710914,38.88233400000001
NCT01515007,Concord,New South Wales,Australia,151.1033131,-33.8559625
NCT01515007,Westmead,New South Wales,Australia,150.9869597,-33.8085661
NCT01515007,Brisbane,Queensland,Australia,153.0260341,-27.4704528
NCT01515007,Cairns,Queensland,Australia,145.7709529,-16.9203476
NCT01515007,South Brisbane,Queensland,Australia,153.0134124,-27.4743523
NCT01515007,Daw Park,South Australia,Australia,138.5909263,-34.979522
NCT01515007,Footscray,Victoria,Australia,144.892357,-37.7988987
NCT01515007,Heidelberg,Victoria,Australia,145.0696116,-37.7566014
NCT01515007,Adelaide,NA,Australia,138.6007456,-34.9284989
NCT01515007,Calgary,Alberta,Canada,-114.0718831,51.04473309999999
NCT01515007,Kelowna,British Columbia,Canada,-119.4960106,49.8879519
NCT01515007,Montreal,Quebec,Canada,-73.567256,45.5016889
NCT01515007,Borstel,Schleswig-Holstein,Germany,9.7984239,53.9688715
NCT01515007,Berlin,NA,Germany,13.404954,52.52000659999999
NCT01515007,Donaustaff,NA,Germany,10.451526,51.165691
NCT01515007,Freiburg,NA,Germany,7.842104299999999,47.9990077
NCT01515007,Hannover,NA,Germany,9.732010400000002,52.3758916
NCT01515007,Immenstadt im Allgau,NA,Germany,10.2206641,47.5592213
NCT01515007,Lubeck,NA,Germany,10.6865593,53.8654673
NCT01515007,Munich,NA,Germany,11.5819806,48.1351253
NCT01515007,Budapest,NA,Hungary,19.040235,47.497912
NCT01515007,Debrecen,NA,Hungary,21.6254485,47.5288879
NCT01515007,Miskolc,NA,Hungary,20.7784384,48.1034775
NCT01515007,Szombathely,NA,Hungary,16.6218441,47.2306851
NCT01515007,Dublin,NA,Ireland,-6.2723062,53.3387508
NCT01515007,Galway,NA,Ireland,-9.0567905,53.270668
NCT01515007,Ashkelon,NA,Israel,34.5742523,31.6687885
NCT01515007,Haifa,NA,Israel,34.989571,32.7940463
NCT01515007,Holon,NA,Israel,34.787384,32.015833
NCT01515007,Jerusalem,NA,Israel,35.21371,31.768319
NCT01515007,Kfar-Saba,NA,Israel,34.90761,32.178195
NCT01515007,Rehovot,NA,Israel,34.811272,31.892773
NCT01515007,Tel Aviv,NA,Israel,34.78176759999999,32.0852999
NCT01515007,Pavia,PV,Italy,9.1582069,45.1847248
NCT01515007,Acquaviva delle Fonti,NA,Italy,16.8454361,40.8971942
NCT01515007,Bologna,NA,Italy,11.3426163,44.494887
NCT01515007,Ferrara,NA,Italy,11.619787,44.8381237
NCT01515007,Firenze,NA,Italy,11.2558136,43.7695604
NCT01515007,Milano,NA,Italy,9.189982,45.464203500000004
NCT01515007,Pisa,NA,Italy,11.7566298,45.1738544
NCT01515007,Busan,NA,"Korea, Republic of",129.0756416,35.1795543
NCT01515007,Seoul,NA,"Korea, Republic of",126.9779692,37.566535
NCT01515007,Cekule,NA,Latvia,24.410552,56.9238027
NCT01515007,Daugavpils,NA,Latvia,26.536179,55.874736
NCT01515007,Liepaja,NA,Latvia,21.010806,56.5046678
NCT01515007,Riga,NA,Latvia,24.1051864,56.9496487
NCT01515007,Bialystok,NA,Poland,23.1688403,53.13248859999999
NCT01515007,Chrzanow,NA,Poland,19.4001765,50.13456430000001
NCT01515007,Warsaw,NA,Poland,21.0122287,52.2296756
NCT01515007,Wroclaw,NA,Poland,17.0385376,51.1078852
NCT01515007,Bucuresti,NA,Romania,26.1025384,44.4267674
NCT01515007,Constanta,NA,Romania,28.6348138,44.1598013
NCT01515007,Timisoara,NA,Romania,21.2086793,45.7488716
NCT01515007,Durban,KwaZulu-Natal,South Africa,31.0218404,-29.85868039999999
NCT01515007,Pietermaritzburg,KwaZulu-Natal,South Africa,30.3794118,-29.6006068
NCT01515007,Amanzimtoti,NA,South Africa,30.8900839,-30.0350427
NCT01515007,Cape Town,NA,South Africa,18.4240553,-33.9248685
NCT01515007,Krugersdorp,NA,South Africa,27.8076959,-26.0963217
NCT01515007,Palma de Mallorca,Islas Baleares,Spain,2.6501603,39.5696005
NCT01515007,Barcelona,NA,Spain,2.168568,41.3873974
NCT01515007,Girona,NA,Spain,2.8214264,41.9794005
NCT01515007,Madrid,NA,Spain,-3.7037902,40.4167754
NCT01515007,Malaga,NA,Spain,-4.4212655,36.721261
NCT01515007,Kaohsiung,NA,Taiwan,120.3014353,22.6272784
NCT01515007,Taichung City,NA,Taiwan,120.6736482,24.1477358
NCT01515007,Taipei City,NA,Taiwan,121.5654268,25.0329636
NCT01515007,Glasgow,Scotland,United Kingdom,-4.251806,55.864237
NCT01515007,Birmingham,West Midlands,United Kingdom,-1.890401,52.48624299999999
NCT01515007,Bradford,NA,United Kingdom,-1.7563583,53.7937996
NCT01515007,Dundee,NA,United Kingdom,-2.970721,56.462018
NCT01515007,Liverpool,NA,United Kingdom,-2.9915726,53.4083714
NCT01515007,Llandough,NA,United Kingdom,-3.198786,51.454881
NCT01515007,London,NA,United Kingdom,-0.1275862,51.5072178
NCT01515007,Manchester,NA,United Kingdom,-2.2426305,53.4807593
NCT01515007,Newcastle upon Tyne,NA,United Kingdom,-1.61778,54.978252
NCT01515007,Nottinghamshire,NA,United Kingdom,-1.1549892,52.9540223
NCT01515007,Stoke-on-Trent,NA,United Kingdom,-2.1827408,53.0033369
NCT01515007,Tyne And Wear,NA,United Kingdom,-1.5666991,54.9951837
NCT01515007,Wolverhampton,NA,United Kingdom,-2.1256587,52.5868159
NCT01684683,Guangzhou City,Guangdong,China,113.26436,23.1290799
NCT01764841,Jasper,Alabama,United States,-87.2775053,33.8312185
NCT01764841,Flagstaff,Arizona,United States,-111.651302,35.1982836
NCT01764841,Phoenix,Arizona,United States,-112.0740373,33.4483771
NCT01764841,Scottsdale,Arizona,United States,-111.9260519,33.4941704
NCT01764841,Fort Smith,Arkansas,United States,-94.42096459999999,35.3843722
NCT01764841,Los Angeles,California,United States,-118.2436849,34.0522342
NCT01764841,Torrance,California,United States,-118.3406288,33.8358492
NCT01764841,Ventura,California,United States,-119.2945199,34.2804923
NCT01764841,Farmington,Connecticut,United States,-72.79502699999999,41.7360305
NCT01764841,Waterbury,Connecticut,United States,-73.0514965,41.5581525
NCT01764841,Washington,District of Columbia,United States,-77.0368707,38.9071923
NCT01764841,Celebration,Florida,United States,-81.5407793,28.3188815
NCT01764841,Miami,Florida,United States,-80.1917902,25.7616798
NCT01764841,Orlando,Florida,United States,-81.3789269,28.5383832
NCT01764841,Weston,Florida,United States,-80.3997748,26.1003654
NCT01764841,Winter Park,Florida,United States,-81.33923519999999,28.5999998
NCT01764841,Lawrenceville,Georgia,United States,-83.9879625,33.9562149
NCT01764841,Marietta,Georgia,United States,-84.5499327,33.95260200000001
NCT01764841,Chicago,Illinois,United States,-87.6297982,41.8781136
NCT01764841,Michigan City,Indiana,United States,-86.8950297,41.70753939999999
NCT01764841,Hazard,Kentucky,United States,-83.1932284,37.24954
NCT01764841,Chesterfield,Missouri,United States,-90.5770675,38.6631083
NCT01764841,Summit,New Jersey,United States,-74.3646122,40.7146376
NCT01764841,New Hyde Park,New York,United States,-73.6879082,40.7351018
NCT01764841,New York,New York,United States,-74.0059728,40.7127753
NCT01764841,Portland,Oregon,United States,-122.6783853,45.515232
NCT01764841,Philadelphia,Pennsylvania,United States,-75.1652215,39.9525839
NCT01764841,Philadelphia,Pennsylvania,United States,-75.1652215,39.9525839
NCT01764841,Charleston,South Carolina,United States,-79.93105120000001,32.7764749
NCT01764841,Fort Worth,Texas,United States,-97.3307658,32.7554883
NCT01764841,Houston,Texas,United States,-95.3698028,29.7604267
NCT01764841,Houston,Texas,United States,-95.3698028,29.7604267
NCT01764841,Kingwood,Texas,United States,-95.18447739999999,30.0500255
NCT01764841,McKinney,Texas,United States,-96.6389342,33.1983388
NCT01764841,Tyler,Texas,United States,-95.30106239999999,32.3512601
NCT01764841,Abingdon,Virginia,United States,-81.9773482,36.70983349999999
NCT01764841,Richmond,Virginia,United States,-77.4360481,37.5407246
NCT01764841,Spokane,Washington,United States,-117.4260466,47.6587802
NCT01764841,Tacoma,Washington,United States,-122.4442906,47.2528768
NCT01764841,Buenos Aires,Ciudad Auton. De Buenos Aires,Argentina,-58.3815591,-34.6036844
NCT01764841,Godoy Cruz,Mendoza,Argentina,-68.8583963,-32.9286268
NCT01764841,Vicente López,NA,Argentina,-58.473816,-34.5281205
NCT01764841,Woolloongabba,Queensland,Australia,153.035968,-27.486534
NCT01764841,Adelaide,South Australia,Australia,138.6007456,-34.9284989
NCT01764841,Adelaide,South Australia,Australia,138.6007456,-34.9284989
NCT01764841,Woodville,South Australia,Australia,138.5369358,-34.8789633
NCT01764841,Parkville,Victoria,Australia,144.9426083,-37.7787036
NCT01764841,Prahran,Victoria,Australia,145.0027616,-37.8507947
NCT01764841,Murdoch,Western Australia,Australia,115.8425735,-32.0698917
NCT01764841,Box Hill,NA,Australia,145.1238563,-37.8181073
NCT01764841,Cairns,NA,Australia,145.7709529,-16.9203476
NCT01764841,Frankston,NA,Australia,145.135722,-38.1466246
NCT01764841,Kogarah,NA,Australia,151.1372588,-33.9643523
NCT01764841,Toorak Gardens,NA,Australia,138.6374021,-34.9316498
NCT01764841,Aarhus C,NA,Denmark,10.202726,56.1460465
NCT01764841,Hellerup,NA,Denmark,12.569196,55.73665399999999
NCT01764841,Naestved,NA,Denmark,11.759207,55.224613
NCT01764841,Roskilde,NA,Denmark,12.087845,55.64191
NCT01764841,Clermont Ferrand,NA,France,3.087025,45.77722199999999
NCT01764841,Montpellier,NA,France,3.876716,43.610769
NCT01764841,Nimes,NA,France,4.360054,43.836699
NCT01764841,Toulon,NA,France,5.928,43.124228
NCT01764841,Heidelberg,Baden-Württemberg,Germany,8.6724335,49.3987524
NCT01764841,Cottbus,Brandenburg,Germany,14.3328679,51.75631079999999
NCT01764841,Frankfurt,Hessen,Germany,8.6821267,50.1109221
NCT01764841,Neu-Isenburg,Hessen,Germany,8.6952638,50.0522076
NCT01764841,Hannover,Niedersachsen,Germany,9.732010400000002,52.3758916
NCT01764841,Hannover,Niedersachsen,Germany,9.732010400000002,52.3758916
NCT01764841,Koblenz,Rheinland-Pfalz,Germany,7.5889959,50.3569429
NCT01764841,Geesthacht,Schleswig-Holstein,Germany,10.3611665,53.4379562
NCT01764841,Jena,Thüringen,Germany,11.5892372,50.927054
NCT01764841,Berlin,NA,Germany,13.404954,52.52000659999999
NCT01764841,Berlin,NA,Germany,13.404954,52.52000659999999
NCT01764841,Berlin,NA,Germany,13.404954,52.52000659999999
NCT01764841,Hamburg,NA,Germany,9.9936818,53.5510846
NCT01764841,Afula,NA,Israel,35.287922,32.610493
NCT01764841,Ashkelon,NA,Israel,34.5742523,31.6687885
NCT01764841,Beer Sheva,NA,Israel,34.791462,31.252973
NCT01764841,Haifa,NA,Israel,34.989571,32.7940463
NCT01764841,Haifa,NA,Israel,34.989571,32.7940463
NCT01764841,Jerusalem,NA,Israel,35.21371,31.768319
NCT01764841,Petah Tikva,NA,Israel,34.887762,32.084041
NCT01764841,Ramat Gan,NA,Israel,34.824785,32.068424
NCT01764841,Rehovot,NA,Israel,34.811272,31.892773
NCT01764841,Tel Aviv,NA,Israel,34.78176759999999,32.0852999
NCT01764841,Benevento,Campania,Italy,14.7826208,41.1297613
NCT01764841,Trieste,Friuli-Venezia Giulia,Italy,13.7768182,45.6495264
NCT01764841,Roma,Lazio,Italy,12.4963655,41.9027835
NCT01764841,Pavia,Lombardia,Italy,9.1582069,45.1847248
NCT01764841,Varese,Lombardia,Italy,8.8250576,45.82059890000001
NCT01764841,Bari,Puglia,Italy,16.8718715,41.1171432
NCT01764841,Cagliari,Sardegna,Italy,9.1216613,39.2238411
NCT01764841,Catania,Sicilia,Italy,15.0830304,37.5078772
NCT01764841,Pisa,Toscana,Italy,10.4016888,43.7228386
NCT01764841,Verona,Veneto,Italy,10.9916215,45.43838419999999
NCT01764841,Toon,Ehime,Japan,132.8722841,33.7910504
NCT01764841,Nakagun,Ibaraki,Japan,140.5860497,36.4609742
NCT01764841,Koshi,Kumamoto,Japan,130.7897473,32.8860179
NCT01764841,Matsusaka,Mie,Japan,136.5276154,34.5779758
NCT01764841,Tsu,Mie,Japan,136.5052256,34.7186389
NCT01764841,Sakai,Osaka,Japan,135.4831176,34.5733261
NCT01764841,Hamamatsu,Shizuoka,Japan,137.7274159,34.7102752
NCT01764841,Kiyose,Tokyo,Japan,139.5261729,35.7860547
NCT01764841,Mitaka,Tokyo,Japan,139.5598366,35.6833484
NCT01764841,Fukuoka,NA,Japan,130.4016888,33.5901838
NCT01764841,Daugavpils,NA,Latvia,26.536179,55.874736
NCT01764841,Daugavpils,NA,Latvia,26.536179,55.874736
NCT01764841,Jurmala,NA,Latvia,23.6168486,56.947079
NCT01764841,Kraslava,NA,Latvia,27.162763,55.894769
NCT01764841,Riga,NA,Latvia,24.1051864,56.9496487
NCT01764841,Riga,NA,Latvia,24.1051864,56.9496487
NCT01764841,Riga,NA,Latvia,24.1051864,56.9496487
NCT01764841,Riga,NA,Latvia,24.1051864,56.9496487
NCT01764841,Talsu,NA,Latvia,22.5873859,57.2480409
NCT01764841,Auckland,NA,New Zealand,174.7644881,-36.85088270000001
NCT01764841,Auckland,NA,New Zealand,174.7644881,-36.85088270000001
NCT01764841,Christchurch,NA,New Zealand,172.6305589,-43.5320214
NCT01764841,Dunedin,NA,New Zealand,170.5005957,-45.8795455
NCT01764841,Hamilton,NA,New Zealand,175.2527624,-37.7825893
NCT01764841,Tauranga,NA,New Zealand,176.1654272,-37.6869653
NCT01764841,Wellington,NA,New Zealand,174.7787463,-41.2923814
NCT01764841,Bratislava,NA,Slovakia,17.1077477,48.1485965
NCT01764841,Presov,NA,Slovakia,21.2393119,49.0018324
NCT01764841,Santiago de Compostela,A Coruña,Spain,-8.5441729,42.8768606
NCT01764841,Elda,Alicante,Spain,-0.7964597,38.4765073
NCT01764841,Oviedo,Asturias,Spain,-5.8485461,43.3622522
NCT01764841,Badalona,Barcelona,Spain,2.2449607,41.446964
NCT01764841,L'Hospitalet,Barcelona,Spain,2.1164942,41.3661865
NCT01764841,Sant Boi de Llobregat,Barcelona,Spain,2.035041,41.3458415
NCT01764841,Terrassa,Barcelona,Spain,2.0054917,41.56314820000001
NCT01764841,Pozuelo de Alarcón,Madrid,Spain,-3.8058517,40.4440627
NCT01764841,Barcelona,NA,Spain,2.168568,41.3873974
NCT01764841,Barcelona,NA,Spain,2.168568,41.3873974
NCT01764841,Cáceres,NA,Spain,-6.3724247,39.4752765
NCT01764841,Madrid,NA,Spain,-3.7037902,40.4167754
NCT01764841,Madrid,NA,Spain,-3.7037902,40.4167754
NCT01764841,Madrid,NA,Spain,-3.7037902,40.4167754
NCT01764841,Pontevedra,NA,Spain,-8.6446202,42.4298846
NCT01764841,Valencia,NA,Spain,-0.7532808999999999,39.4840108
NCT01764841,Valencia,NA,Spain,-0.7532808999999999,39.4840108
NCT01764841,Cambridge,Cambridgeshire,United Kingdom,0.1312729,52.1950788
NCT01764841,Exeter,Devon,United Kingdom,-3.5274889,50.72603669999999
NCT01764841,Plymouth,Devon,United Kingdom,-4.1426565,50.3754565
NCT01764841,Torbay,Devon,United Kingdom,-3.525315,50.4619209
NCT01764841,Dundee,Dundee City,United Kingdom,-2.970721,56.462018
NCT01764841,Belfast,North Ireland,United Kingdom,-5.93012,54.59728500000001
NCT01764841,Shrewsbury,Shropshire,United Kingdom,-2.7553268,52.70730289999999
NCT01764841,Newcastle Upon Tyne,Tyne And Wear,United Kingdom,-1.61778,54.978252
NCT01764841,Londonderry,NA,United Kingdom,-7.3085748,54.9966124
NCT01764841,London,NA,United Kingdom,-0.1275862,51.5072178
NCT01764841,Manchester,NA,United Kingdom,-2.2426305,53.4807593
NCT01792427,Leuven,Vlaams-Brabant,Belgium,4.7137645,50.8822871
NCT01792440,Leuven,Vlaams-Brabent,Belgium,4.7137645,50.8822871
NCT01801657,Guangzhou,Guangdong,China,113.26436,23.1290799
NCT01818544,Nice,NA,France,2.213749,46.227638
NCT01818544,Perpignan,NA,France,2.8948332,42.6886591
NCT01818544,Donaustauf,Bayern,Germany,12.2073854,49.0324537
NCT01818544,Rüdersdorf,Brandenburg,Germany,13.8373971,52.481592
NCT01818544,Hannover,Niedersachsen,Germany,9.732010400000002,52.3758916
NCT01818544,Leipzig,Sachsen,Germany,12.3730747,51.3396955
NCT01818544,Großhansdorf,Schleswig-Holstein,Germany,10.2730016,53.651326
NCT01818544,Kiel,Schleswig-Holstein,Germany,10.1227652,54.3232927
NCT01818544,Lübeck,Schleswig-Holstein,Germany,10.6865593,53.8654673
NCT01818544,Jena,Thüringen,Germany,11.5892372,50.927054
NCT01818544,Hamburg,NA,Germany,9.9936818,53.5510846
NCT01818544,Orbassano,Torino,Italy,7.5353625,45.00572649999999
NCT01818544,Genova,NA,Italy,8.946256,44.4056499
NCT01818544,Milano,NA,Italy,9.189982,45.464203500000004
NCT01818544,Napoli,NA,Italy,14.26812,40.8517983
NCT01818544,Padova,NA,Italy,11.8767611,45.4064349
NCT01818544,Siena,NA,Italy,11.3307574,43.31880899999999
NCT01818544,Badalona,Barcelona,Spain,2.2449607,41.446964
NCT01818544,Salt,Girona,Spain,2.7929203,41.97006469999999
NCT01818544,Majadahonda,Madrid,Spain,-3.8683123,40.4737586
NCT01818544,Madrid,NA,Spain,-3.7037902,40.4167754
NCT01818544,Southampton,Hampshire,United Kingdom,-1.4049018,50.9105468
NCT01818544,Cottingham,Humberside,United Kingdom,-0.4014139,53.7669073
NCT01818544,Leicester,Leicestershire,United Kingdom,-1.1397592,52.6368778
NCT01818544,Liverpool,Merseyside,United Kingdom,-2.9915726,53.4083714
NCT01818544,Sheffield,South Yorkshire,United Kingdom,-1.470085,53.38112899999999
NCT01818544,Dundee,Tayside,United Kingdom,-2.970721,56.462018
NCT01818544,Newcastle Upon Tyne,Tyne and Wear,United Kingdom,-1.61778,54.978252
NCT01818544,South Shields,Tyne and Wear,United Kingdom,-1.427406,54.999424
NCT01818544,Wolverhampton,West Midlands,United Kingdom,-2.1256587,52.5868159
NCT01818544,Bradford,West Yorkshire,United Kingdom,-1.7563583,53.7937996
NCT01818544,Glasgow,NA,United Kingdom,-4.251806,55.864237
NCT01818544,London,NA,United Kingdom,-0.1275862,51.5072178
NCT01854788,Barcelona,NA,Spain,2.168568,41.3873974
NCT01906047,Leuven,Vlaams-Brabant,Belgium,4.7137645,50.8822871
NCT02035488,Groningen,NA,Netherlands,6.566501799999999,53.2193835
NCT02081963,Jinan,Shandong,China,117.12009,36.6518399
NCT02088216,Jinan,Shandong,China,117.12009,36.6518399
NCT02096315,Barcelona,NA,Spain,2.168568,41.3873974
NCT02096315,Barcelona,NA,Spain,2.168568,41.3873974
NCT02096315,Valencia,NA,Spain,-0.7532808999999999,39.4840108
NCT02096315,City of Edinburgh,NA,United Kingdom,-3.188267,55.953252
NCT02104245,Phoenix,Arizona,United States,-112.0740373,33.4483771
NCT02104245,Scottsdale,Arizona,United States,-111.9260519,33.4941704
NCT02104245,Sacramento,California,United States,-121.4943996,38.5815719
NCT02104245,San Diego,California,United States,-117.1610838,32.715738
NCT02104245,Torrance,California,United States,-118.3406288,33.8358492
NCT02104245,Danbury,Connecticut,United States,-73.4540111,41.394817
NCT02104245,Miami,Florida,United States,-80.1917902,25.7616798
NCT02104245,Orlando,Florida,United States,-81.3789269,28.5383832
NCT02104245,Winter Park,Florida,United States,-81.33923519999999,28.5999998
NCT02104245,Decatur,Georgia,United States,-84.2963123,33.7748275
NCT02104245,Duluth,Georgia,United States,-84.1446376,34.0028786
NCT02104245,Port Huron,Michigan,United States,-82.42491419999999,42.9708634
NCT02104245,Omaha,Nebraska,United States,-95.9345034,41.2565369
NCT02104245,Lebanon,New Hampshire,United States,-72.2517569,43.6422934
NCT02104245,Summit,New Jersey,United States,-74.3646122,40.7146376
NCT02104245,Albuquerque,New Mexico,United States,-106.650422,35.0843859
NCT02104245,New York,New York,United States,-74.0059728,40.7127753
NCT02104245,Chapel Hill,North Carolina,United States,-79.0558445,35.9131996
NCT02104245,Columbus,Ohio,United States,-82.99879419999999,39.9611755
NCT02104245,Philadelphia,Pennsylvania,United States,-75.1652215,39.9525839
NCT02104245,Rock Hill,South Carolina,United States,-81.02507840000001,34.9248667
NCT02104245,Spartanburg,South Carolina,United States,-81.9320482,34.9495672
NCT02104245,Tyler,Texas,United States,-95.30106239999999,32.3512601
NCT02104245,Seattle,Washington,United States,-122.3320708,47.6062095
NCT02104245,Milwaukee,Wisconsin,United States,-87.9064736,43.0389025
NCT02104245,Greenslopes,Queensland,Australia,153.0513859,-27.5080911
NCT02104245,Adelaide,South Australia,Australia,138.6007456,-34.9284989
NCT02104245,Nedlands,Western Australia,Australia,115.8057894,-31.9787216
NCT02104245,Perth,Western Australia,Australia,115.861309,-31.9523123
NCT02104245,Vancouver,British Columbia,Canada,-123.1207375,49.2827291
NCT02104245,Toronto,Ontario,Canada,-79.3831843,43.653226
NCT02104245,Windsor,Ontario,Canada,-83.03636329999999,42.3149367
NCT02104245,St-Jerome,Quebec,Canada,-74.004948,45.775357
NCT02104245,Belgrade,NA,Former Serbia and Montenegro,20.46123,44.8125449
NCT02104245,Knez Selo,NA,Former Serbia and Montenegro,22.0010809,43.3661621
NCT02104245,Kragujevac,NA,Former Serbia and Montenegro,20.9114225,44.0127932
NCT02104245,Sremska Kamenica,NA,Former Serbia and Montenegro,19.8477338,45.2213773
NCT02104245,Créteil Cedex 01,NA,France,2.455572,48.790367
NCT02104245,Grenoble cedex,NA,France,5.724524,45.188529
NCT02104245,Nice Cedex 1,NA,France,7.261953200000001,43.7101728
NCT02104245,Pessac Cedex,NA,France,-0.630386,44.80583
NCT02104245,Rouen Cedex,NA,France,1.099971,49.44323199999999
NCT02104245,Toulouse cedex 9,NA,France,1.444209,43.604652
NCT02104245,Kutaisi,NA,Georgia,42.7180019,42.2662428
NCT02104245,Tbilisi,NA,Georgia,44.827096,41.7151377
NCT02104245,Budapest,NA,Hungary,19.040235,47.497912
NCT02104245,Nyiregyhaza,NA,Hungary,21.7244053,47.9495324
NCT02104245,Szekesfehervar,NA,Hungary,18.4221358,47.18602620000001
NCT02104245,Torokbalint,NA,Hungary,18.9108101,47.4384914
NCT02104245,Jerusalem,NA,Israel,35.21371,31.768319
NCT02104245,Petach Tikva,NA,Israel,34.887762,32.084041
NCT02104245,Ramat Gan,NA,Israel,34.824785,32.068424
NCT02104245,Tel-Aviv,NA,Israel,34.78176759999999,32.0852999
NCT02104245,Avellino,NA,Italy,14.7906121,40.914388
NCT02104245,Napoli,NA,Italy,14.26812,40.8517983
NCT02104245,Parma,NA,Italy,10.3279036,44.801485
NCT02104245,Pisa,NA,Italy,11.7566298,45.1738544
NCT02104245,San Gerardo,NA,Italy,12.0236981,45.1994251
NCT02104245,Terni,NA,Italy,12.6426604,42.5636168
NCT02104245,Trieste,NA,Italy,13.7768182,45.6495264
NCT02104245,Suwon,Gyeonggi-do,"Korea, Republic of",127.0286009,37.2635727
NCT02104245,Daegu,NA,"Korea, Republic of",128.601445,35.8714354
NCT02104245,Seoul,NA,"Korea, Republic of",126.9779692,37.566535
NCT02104245,Otahuhu,Auckland,New Zealand,174.8450716,-36.9510309
NCT02104245,Hamilton,Waikato,New Zealand,175.2527624,-37.7825893
NCT02104245,Tauranga,NA,New Zealand,176.1654272,-37.6869653
NCT02104245,Jesus Maria,Lima,Peru,-77.0506498,-12.0825241
NCT02104245,La Victoria,Lima,Peru,-77.01628989999999,-12.0734497
NCT02104245,Pueblo Libre,Lima,Peru,-77.0692591,-12.0752423
NCT02104245,San Juan de Miraflores,Lima,Peru,-76.97226359999999,-12.1551319
NCT02104245,Bialystok,NA,Poland,23.1688403,53.13248859999999
NCT02104245,Krakow,NA,Poland,19.9449799,50.06465009999999
NCT02104245,Ruda Slaska,NA,Poland,18.8555704,50.2558286
NCT02104245,Warsaw,NA,Poland,21.0122287,52.2296756
NCT02104245,Arad,NA,Romania,21.3122677,46.1865606
NCT02104245,Bucuresti,NA,Romania,26.1025384,44.4267674
NCT02104245,Cluj-Napoca,NA,Romania,23.6236353,46.7712101
NCT02104245,Craiova,NA,Romania,23.7948808,44.3301785
NCT02104245,Iasi,NA,Romania,27.6014418,47.1584549
NCT02104245,Barcelona,NA,Spain,2.168568,41.3873974
NCT02104245,La Coruna,NA,Spain,-8.4115401,43.3623436
NCT02104245,Lleida,NA,Spain,0.6200205999999999,41.61772209999999
NCT02104245,Valencia,NA,Spain,-0.7532808999999999,39.4840108
NCT02104245,Stockton-on-Trees,Cleveland,United Kingdom,-1.3061029,54.5825253
NCT02104245,Wigan,Greater Manchester,United Kingdom,-2.6325074,53.5450645
NCT02104245,Cambridge,NA,United Kingdom,0.1312729,52.1950788
NCT02104245,Colchester,NA,United Kingdom,0.8918740000000001,51.895927
NCT02104245,Cottingham,NA,United Kingdom,-0.413978,53.782081
NCT02104245,Lancaster,NA,United Kingdom,-2.6943317,54.0982886
NCT02104245,Leeds,NA,United Kingdom,-1.5490774,53.8007554
NCT02104245,London,NA,United Kingdom,-0.1275862,51.5072178
NCT02104245,Manchester,NA,United Kingdom,-2.2426305,53.4807593
NCT02104245,North Sheilds,NA,United Kingdom,-1.449138,55.010762
NCT02104245,Southampton,NA,United Kingdom,-1.4049018,50.9105468
NCT02104245,Telford,NA,United Kingdom,-2.4672611,52.6775873
NCT02106832,Peoria,Arizona,United States,-112.2373779,33.5805955
NCT02106832,Fountain Valley,California,United States,-117.9544069,33.7090212
NCT02106832,La Jolla,California,United States,-117.2712717,32.8328112
NCT02106832,Long Beach,California,United States,-118.1937395,33.7700504
NCT02106832,Newport Beach,California,United States,-117.9298493,33.6188829
NCT02106832,San Diego,California,United States,-117.1610838,32.715738
NCT02106832,Kissimmee,Florida,United States,-81.40757099999999,28.2919557
NCT02106832,Miami,Florida,United States,-80.1917902,25.7616798
NCT02106832,Sarasota,Florida,United States,-82.5310117,27.336465
NCT02106832,Tampa,Florida,United States,-82.4571776,27.950575
NCT02106832,Decatur,Georgia,United States,-84.2963123,33.7748275
NCT02106832,Skokie,Illinois,United States,-87.7416246,42.0324025
NCT02106832,Olathe,Kansas,United States,-94.81912849999999,38.8813958
NCT02106832,Rochester,Minnesota,United States,-92.4801989,44.0121221
NCT02106832,Brooklyn,New York,United States,-73.9441579,40.6781784
NCT02106832,Mineola,New York,United States,-73.64068449999999,40.7492678
NCT02106832,Asheville,North Carolina,United States,-82.5514869,35.5950581
NCT02106832,Portland,Oregon,United States,-122.6783853,45.515232
NCT02106832,Doylestown,Pennsylvania,United States,-75.1298939,40.3101063
NCT02106832,Greenville,South Carolina,United States,-82.3940104,34.85261759999999
NCT02106832,Edinburg,Texas,United States,-98.1633432,26.3017374
NCT02106832,Tyler,Texas,United States,-95.30106239999999,32.3512601
NCT02106832,Buenos Aires,Ciudad Auton. de Buenos Aires,Argentina,-58.3815591,-34.6036844
NCT02106832,Capital Federal,Ciudad Auton. de Buenos Aires,Argentina,-58.3815591,-34.6036844
NCT02106832,Godoy Cruz,Mendoza,Argentina,-68.8583963,-32.9286268
NCT02106832,Córdoba,NA,Argentina,-64.1887761,-31.42008329999999
NCT02106832,Vicente López,NA,Argentina,-58.473816,-34.5281205
NCT02106832,Kogarah,New South Wales,Australia,151.1372588,-33.9643523
NCT02106832,New Lambton Heights,New South Wales,Australia,151.6970607,-32.9247631
NCT02106832,Adelaide,South Australia,Australia,138.6007456,-34.9284989
NCT02106832,Adelaide,South Australia,Australia,138.6007456,-34.9284989
NCT02106832,Parkville,Victoria,Australia,144.9426083,-37.7787036
NCT02106832,Murdoch,Western Australia,Australia,115.8425735,-32.0698917
NCT02106832,Perth,Western Australia,Australia,115.861309,-31.9523123
NCT02106832,Graz,NA,Austria,15.439504,47.070714
NCT02106832,Salzburg,NA,Austria,13.05501,47.80949
NCT02106832,Belo Horizonte,Minas Gerais,Brazil,-43.9386685,-19.919052
NCT02106832,Recife,Pernambuco,Brazil,-34.8829629,-8.0577401
NCT02106832,Porto Alegre,Rio Grande do Sul,Brazil,-51.2089887,-30.0368176
NCT02106832,Porto Alegre,Rio Grande do Sul,Brazil,-51.2089887,-30.0368176
NCT02106832,São Paulo,Sao Paulo,Brazil,-46.6395571,-23.5557714
NCT02106832,Porto Alegre,NA,Brazil,-51.2089887,-30.0368176
NCT02106832,Sao Paulo,NA,Brazil,-46.6395571,-23.5557714
NCT02106832,Sao Paulo,NA,Brazil,-46.6395571,-23.5557714
NCT02106832,Gabrovo,NA,Bulgaria,25.3186837,42.8742212
NCT02106832,Kozloduy,NA,Bulgaria,23.7246154,43.77556149999999
NCT02106832,Lovech,NA,Bulgaria,24.7141906,43.1369534
NCT02106832,Razgrad,NA,Bulgaria,26.5411164,43.53367189999999
NCT02106832,Ruse,NA,Bulgaria,25.9656554,43.83557130000001
NCT02106832,Sevlievo,NA,Bulgaria,25.1034006,43.0266904
NCT02106832,Sliven,NA,Bulgaria,26.3228685,42.6816536
NCT02106832,Sofia,NA,Bulgaria,25.48583,42.733883
NCT02106832,Sofia,NA,Bulgaria,25.48583,42.733883
NCT02106832,Stara Zagora,NA,Bulgaria,25.6344644,42.4257769
NCT02106832,Fuzhou,Fujian,China,119.29647,26.0742099
NCT02106832,Guangzhou,Guangdong,China,113.26436,23.1290799
NCT02106832,Hohehot,Inner Mongolia,China,111.75199,40.8414899
NCT02106832,Suzhou,Jiangsu,China,120.58319,31.29833989999999
NCT02106832,Wuxi,Jiangsu,China,120.31237,31.4909899
NCT02106832,Nanchang,Jiangxi,China,115.8579399,28.6820199
NCT02106832,Shenyang,Liaoning,China,123.432968,41.804778
NCT02106832,Yinchuan,Ningxia,China,106.23245,38.4862899
NCT02106832,Chengdu,Sichuan,China,104.0665099,30.5722599
NCT02106832,Beijing,NA,China,116.407395,39.904211
NCT02106832,Beijing,NA,China,116.407395,39.904211
NCT02106832,Chongqing,NA,China,106.5511838,29.5656843
NCT02106832,Shanghai,NA,China,104.214175,26.053162
NCT02106832,Shanghai,NA,China,104.214175,26.053162
NCT02106832,Shanghai,NA,China,104.214175,26.053162
NCT02106832,Brno,NA,Czechia,16.6068371,49.1950602
NCT02106832,Prague 4,NA,Czechia,14.4388741,50.0433092
NCT02106832,Praha 2,NA,Czechia,14.4355247,50.07449580000001
NCT02106832,Praha 8,NA,Czechia,14.4670668,50.1176575
NCT02106832,Treuenbrietzen,Brandenburg,Germany,12.8655166,52.0916007
NCT02106832,Frankfurt,Hessen,Germany,8.6821267,50.1109221
NCT02106832,Neu-Isenburg,Hessen,Germany,8.6952638,50.0522076
NCT02106832,Hannover,Niedersachsen,Germany,9.732010400000002,52.3758916
NCT02106832,Hannover,Niedersachsen,Germany,9.732010400000002,52.3758916
NCT02106832,Gelsenkirchen,Nordrhein-Westfalen,Germany,7.0838411,51.5187651
NCT02106832,Leipzig,Sachsen,Germany,12.3730747,51.3396955
NCT02106832,Bad Berka,Thüringen,Germany,11.281641,50.8982547
NCT02106832,Jena,Thüringen,Germany,11.5892372,50.927054
NCT02106832,Berlin,NA,Germany,13.404954,52.52000659999999
NCT02106832,Berlin,NA,Germany,13.404954,52.52000659999999
NCT02106832,Hamburg,NA,Germany,9.9936818,53.5510846
NCT02106832,Hong Kong,NA,Hong Kong,114.1693611,22.3193039
NCT02106832,Kowloon,NA,Hong Kong,114.1796057,22.3185673
NCT02106832,New Territories,NA,Hong Kong,114.1234149,22.3704243
NCT02106832,Shatin,NA,Hong Kong,114.1974398,22.3771304
NCT02106832,Daejeon,Daejeon Gwang''yeogsi,"Korea, Republic of",127.3845475,36.3504119
NCT02106832,Bucheon,Gyeonggido,"Korea, Republic of",126.7660309,37.5034138
NCT02106832,"Incheon Gwangyeogsi,",Incheon Gwang''yeogsi,"Korea, Republic of",126.7052062,37.4562557
NCT02106832,Seoul,Seoul Teugbyeolsi,"Korea, Republic of",126.9779692,37.566535
NCT02106832,Daegu,NA,"Korea, Republic of",128.601445,35.8714354
NCT02106832,Incheon,NA,"Korea, Republic of",126.7052062,37.4562557
NCT02106832,Seoul,NA,"Korea, Republic of",126.9779692,37.566535
NCT02106832,Seoul,NA,"Korea, Republic of",126.9779692,37.566535
NCT02106832,Seoul,NA,"Korea, Republic of",126.9779692,37.566535
NCT02106832,Seoul,NA,"Korea, Republic of",126.9779692,37.566535
NCT02106832,Seoul,NA,"Korea, Republic of",126.9779692,37.566535
NCT02106832,Daugavpils,NA,Latvia,26.536179,55.874736
NCT02106832,Daugavpils,NA,Latvia,26.536179,55.874736
NCT02106832,Jurmala,NA,Latvia,23.6168486,56.947079
NCT02106832,Kraslava,NA,Latvia,27.162763,55.894769
NCT02106832,Riga,NA,Latvia,24.1051864,56.9496487
NCT02106832,Riga,NA,Latvia,24.1051864,56.9496487
NCT02106832,Riga,NA,Latvia,24.1051864,56.9496487
NCT02106832,Riga,NA,Latvia,24.1051864,56.9496487
NCT02106832,Talsi,NA,Latvia,22.5873859,57.2480409
NCT02106832,Klaipeda,NA,Lithuania,21.1442794,55.70329479999999
NCT02106832,Vilnius,NA,Lithuania,25.2796514,54.6871555
NCT02106832,Alkmaar,NA,Netherlands,4.753375399999999,52.6323813
NCT02106832,Assen,NA,Netherlands,6.5642284,52.992753
NCT02106832,Groningen,NA,Netherlands,6.566501799999999,53.2193835
NCT02106832,Helmond,NA,Netherlands,5.657009599999999,51.4792547
NCT02106832,Maastricht,NA,Netherlands,5.6909725,50.8513682
NCT02106832,Sittard-Geleen,NA,Netherlands,5.823670600000001,51.0031681
NCT02106832,Veldhoven,NA,Netherlands,5.4060209,51.4176337
NCT02106832,City of San Fernando,NA,Philippines,120.6567054,15.0593937
NCT02106832,Manila,NA,Philippines,120.9842195,14.5995124
NCT02106832,Manila,NA,Philippines,120.9842195,14.5995124
NCT02106832,Quezon City,NA,Philippines,121.0535465,14.7064075
NCT02106832,Quezon City,NA,Philippines,121.0535465,14.7064075
NCT02106832,Bielsko-Biala,NA,Poland,19.0583845,49.8223768
NCT02106832,Czestochowa,NA,Poland,19.1203094,50.8118195
NCT02106832,Gorzow Wielkopolski,NA,Poland,15.2369305,52.7325285
NCT02106832,Grudziadz,NA,Poland,18.753565,53.4837486
NCT02106832,Katowice,NA,Poland,19.0237815,50.26489189999999
NCT02106832,Kielce,NA,Poland,20.6285677,50.8660773
NCT02106832,Kielce,NA,Poland,20.6285677,50.8660773
NCT02106832,Kielce,NA,Poland,20.6285677,50.8660773
NCT02106832,Krakow,NA,Poland,19.9449799,50.06465009999999
NCT02106832,Ksawerow,NA,Poland,19.4028294,51.6827806
NCT02106832,Mrozy,NA,Poland,21.8024361,52.1656651
NCT02106832,Ostrowiec Swietokrzyski,NA,Poland,21.3851915,50.9295234
NCT02106832,Rzeszow,NA,Poland,21.9991196,50.0411867
NCT02106832,Warszawa,NA,Poland,21.0122287,52.2296756
NCT02106832,Vila Nova de Gaia,Porto,Portugal,-8.611785099999999,41.1238759
NCT02106832,Angra do Heroísmo,Região Autónoma dos Açores,Portugal,-27.2293969,38.6635375
NCT02106832,Faro,NA,Portugal,-7.9304397,37.0193548
NCT02106832,Lisboa,NA,Portugal,-9.1393366,38.7222524
NCT02106832,Lisboa,NA,Portugal,-9.1393366,38.7222524
NCT02106832,Bragadiru,NA,Romania,25.9892482,44.3818054
NCT02106832,Brasov,NA,Romania,25.5887252,45.6426802
NCT02106832,Bucharest,NA,Romania,26.1025384,44.4267674
NCT02106832,Bucharest,NA,Romania,26.1025384,44.4267674
NCT02106832,Bucharest,NA,Romania,26.1025384,44.4267674
NCT02106832,Bucharest,NA,Romania,26.1025384,44.4267674
NCT02106832,Codlea,NA,Romania,25.4560728,45.6976693
NCT02106832,Constanta,NA,Romania,28.6348138,44.1598013
NCT02106832,Iasi,NA,Romania,27.6014418,47.1584549
NCT02106832,Ploiesti,NA,Romania,26.0128616,44.936664
NCT02106832,Timisoara,NA,Romania,21.2086793,45.7488716
NCT02106832,Arkhangelsk,NA,Russian Federation,40.55057679999999,64.5458549
NCT02106832,Chelyabinsk,NA,Russian Federation,61.4368431,55.1644419
NCT02106832,Moscow,NA,Russian Federation,37.6173,55.755826
NCT02106832,Moscow,NA,Russian Federation,37.6173,55.755826
NCT02106832,Moscow,NA,Russian Federation,37.6173,55.755826
NCT02106832,Moscow,NA,Russian Federation,37.6173,55.755826
NCT02106832,Nizhny Novgorod,NA,Russian Federation,44.0058793,56.3268684
NCT02106832,Novosibirsk,NA,Russian Federation,82.8963831,54.9832693
NCT02106832,Novosibirsk,NA,Russian Federation,82.8963831,54.9832693
NCT02106832,Novosibirsk,NA,Russian Federation,82.8963831,54.9832693
NCT02106832,St. Petersburg,NA,Russian Federation,30.3609097,59.9310584
NCT02106832,St. Petersburg,NA,Russian Federation,30.3609097,59.9310584
NCT02106832,St. Petersburg,NA,Russian Federation,30.3609097,59.9310584
NCT02106832,Tomsk,NA,Russian Federation,84.9480469,56.4884295
NCT02106832,Ufa,NA,Russian Federation,55.9578555,54.73479099999999
NCT02106832,Voronezh,NA,Russian Federation,39.19192880000001,51.6683487
NCT02106832,Yaroslavl,NA,Russian Federation,39.8844708,57.62607440000001
NCT02106832,Belgrade,NA,Serbia,20.46123,44.8125449
NCT02106832,Belgrade,NA,Serbia,20.46123,44.8125449
NCT02106832,Cacak,NA,Serbia,20.3506051,43.891367700000004
NCT02106832,Knez Selo,NA,Serbia,22.0010809,43.3661621
NCT02106832,Kragujevac,NA,Serbia,20.9114225,44.0127932
NCT02106832,Sombor,NA,Serbia,19.1151468,45.773295
NCT02106832,Sremska Kamenica,NA,Serbia,19.8477338,45.2213773
NCT02106832,Valjevo,NA,Serbia,19.8836559,44.2741532
NCT02106832,Bratislava,NA,Slovakia,17.1077477,48.1485965
NCT02106832,Presov,NA,Slovakia,21.2393119,49.0018324
NCT02106832,Johannesburg,Gauteng,South Africa,28.0473051,-26.2041028
NCT02106832,Amanzimtoti,Kwazulu-Natal,South Africa,30.8900839,-30.0350427
NCT02106832,Cape Town,Western Cape,South Africa,18.4240553,-33.9248685
NCT02106832,Cape Town,Western Cape,South Africa,18.4240553,-33.9248685
NCT02106832,Chiayi,NA,Taiwan,120.4491054,23.4800663
NCT02106832,Kaohsiung,NA,Taiwan,120.3014353,22.6272784
NCT02106832,"New Taipei City,",NA,Taiwan,121.4627868,25.0169826
NCT02106832,Taichung,NA,Taiwan,120.6746691,24.1631651
NCT02106832,Taipei,NA,Taiwan,121.5654268,25.0329636
NCT02106832,Bangkok,NA,Thailand,100.5017651,13.7563309
NCT02106832,Bangkok,NA,Thailand,100.5017651,13.7563309
NCT02106832,Chiangmai,NA,Thailand,98.98530079999999,18.7883439
NCT02106832,Khon Kaen,NA,Thailand,102.8236214,16.4321938
NCT02106832,NakhonRatchasima,NA,Thailand,102.083652,14.9738493
NCT02106832,Phitsanulok,NA,Thailand,100.2658516,16.8211238
NCT02106832,Udonthani,NA,Thailand,102.8158924,17.3646969
NCT02106832,Ankara,NA,Turkey,32.8597419,39.9333635
NCT02106832,Ankara,NA,Turkey,32.8597419,39.9333635
NCT02106832,Balcali,NA,Turkey,39.882668,39.033435
NCT02106832,Izmir,NA,Turkey,27.142826,38.423734
NCT02106832,Kampus,NA,Turkey,NA,NA
NCT02106832,Konya,NA,Turkey,32.4931554,37.8746429
NCT02106832,Maltepe,NA,Turkey,29.1739439,40.9497961
NCT02106832,Mersin,NA,Turkey,34.6414811,36.8121041
NCT02106832,Pendik,NA,Turkey,29.258135,40.879326
NCT02106832,Samsun,NA,Turkey,36.3360667,41.2797031
NCT02106832,Sehitkamil,NA,Turkey,37.3399768,37.203126
NCT02163642,Barcelona,NA,Spain,2.168568,41.3873974
NCT02324855,Zaragoza,NA,Spain,-0.8890853,41.6488226
NCT02392663,Barcelona,NA,Spain,2.168568,41.3873974
NCT02411981,Brussels,NA,Belgium,4.3571696,50.8476424
NCT02507843,Shanghai,Shanghai,China,121.473701,31.230416
NCT02563197,Gauting,Bayern,Germany,11.3784087,48.0696838
NCT02563197,Landsberg,Bayern,Germany,10.8718015,48.0464144
NCT02563197,München,Bayern,Germany,11.5819806,48.1351253
NCT02563197,München,Bayern,Germany,11.5819806,48.1351253
NCT02563197,München,Bayern,Germany,11.5819806,48.1351253
NCT02563197,Frankfurt,Hessen,Germany,8.6821267,50.1109221
NCT02563197,Frankfurt,Hessen,Germany,8.6821267,50.1109221
NCT02563197,Neu-Isenburg,Hessen,Germany,8.6952638,50.0522076
NCT02563197,Hannover,Niedersachsen,Germany,9.732010400000002,52.3758916
NCT02563197,Grosshansdorf,NA,Germany,10.2730016,53.651326
NCT02625246,Miami,Florida,United States,-80.1917902,25.7616798
NCT02657473,Alkmaar,Noord-Holland,Netherlands,4.753375399999999,52.6323813
NCT02657473,Amsterdam,NA,Netherlands,4.9041389,52.3675734
NCT02657473,Heerlen,NA,Netherlands,5.9794988,50.88817419999999
NCT02657473,Hoofddorp,NA,Netherlands,4.6907041,52.3060853
NCT02657473,Nijmegen,NA,Netherlands,5.842828099999999,51.8448837
NCT02657473,Utrecht,NA,Netherlands,5.1214201,52.09073739999999
NCT02661438,Vero Beach,Florida,United States,-80.39727359999999,27.6386434
NCT02661438,Jamaica,New York,United States,-73.7889689,40.702677
NCT02712983,Bruxelles,NA,Belgium,4.3571696,50.8476424
NCT02712983,Leuven,NA,Belgium,4.7137645,50.8822871
NCT02712983,Nice,Cedex1,France,7.261953200000001,43.7101728
NCT02712983,Montpellier cedex 5,Herault,France,3.876716,43.610769
NCT02712983,Grenoble,NA,France,5.724524,45.188529
NCT02712983,Toulouse,NA,France,1.444209,43.604652
NCT02712983,Essen,North Rhine-Westphalia,Germany,7.0115552,51.4556432
NCT02712983,Berlin,NA,Germany,13.404954,52.52000659999999
NCT02712983,Frankfurt,NA,Germany,8.6821267,50.1109221
NCT02712983,Hannover,NA,Germany,9.732010400000002,52.3758916
NCT02712983,Leipzig,NA,Germany,12.3730747,51.3396955
NCT02712983,Monza,MB,Italy,9.2744485,45.5845001
NCT02712983,Pisa,PI,Italy,10.4016888,43.7228386
NCT02712983,Pordenone,PN,Italy,12.6551362,45.96263980000001
NCT02712983,Milan,NA,Italy,9.189982,45.464203500000004
NCT02712983,Pavia,NA,Italy,9.1582069,45.1847248
NCT02712983,Scafati,NA,Italy,14.5377595,40.7602114
NCT02712983,Barcelona,Cataluna,Spain,2.168568,41.3873974
NCT02712983,Barcelona,Catalunya,Spain,2.168568,41.3873974
NCT02712983,Barcelona,Catalunya,Spain,2.168568,41.3873974
NCT02712983,Valencia,Comunitat Valencia,Spain,-0.7532808999999999,39.4840108
NCT02712983,Baracaldo - Vizcaya,NA,Spain,-2.9862029,43.2969875
NCT02712983,Barcelona,NA,Spain,2.168568,41.3873974
NCT02712983,Valencia,NA,Spain,-0.7532808999999999,39.4840108
NCT02712983,Valladolid,NA,Spain,-4.724532099999999,41.652251
NCT02712983,Cambridge,Cambridgeshire,United Kingdom,0.1312729,52.1950788
NCT02712983,Dundee,Perthshire,United Kingdom,-2.970721,56.462018
NCT02712983,Birmingham,NA,United Kingdom,-1.890401,52.48624299999999
NCT02712983,Edinburgh,NA,United Kingdom,-3.188267,55.953252
NCT02712983,Lancaster,NA,United Kingdom,-2.6943317,54.0982886
NCT02712983,Leeds,NA,United Kingdom,-1.5490774,53.8007554
NCT02712983,London,NA,United Kingdom,-0.1275862,51.5072178
NCT02712983,Newcastle upon Tyne,NA,United Kingdom,-1.61778,54.978252
NCT02712983,Southampton,NA,United Kingdom,-1.4049018,50.9105468
NCT02782312,Shanghai,Shanghai,China,121.473701,31.230416
NCT02823587,Ribeirão Preto,São Paulo,Brazil,-47.8110855,-21.1694018
NCT02883101,New Delhi,Delhi,India,77.2090212,28.6139391
NCT03056326,Antwerpen,NA,Belgium,4.4051485,51.2213404
NCT03093974,Adelaide,NA,Australia,138.6007456,-34.9284989
NCT03093974,Adelaide,NA,Australia,138.6007456,-34.9284989
NCT03093974,Chermside,NA,Australia,153.0310009,-27.3858322
NCT03093974,Concord,NA,Australia,151.1033131,-33.8559625
NCT03093974,Frankston,NA,Australia,145.135722,-38.1466246
NCT03093974,Greenslopes,NA,Australia,153.0513859,-27.5080911
NCT03093974,Melbourne,NA,Australia,144.9630576,-37.8136276
NCT03093974,Nedlands,NA,Australia,115.8057894,-31.9787216
NCT03093974,New Lambton Heights,NA,Australia,151.6970607,-32.9247631
NCT03093974,South Brisbane,NA,Australia,153.0134124,-27.4743523
NCT03093974,Spearwood,NA,Australia,115.7826495,-32.1037193
NCT03093974,Westmead,NA,Australia,150.9869597,-33.8085661
NCT03093974,Gent,NA,Belgium,3.7303351,51.0500182
NCT03093974,Roeselare,NA,Belgium,3.1292766,50.9498725
NCT03093974,Berlin,NA,Germany,13.404954,52.52000659999999
NCT03093974,Berlin,NA,Germany,13.404954,52.52000659999999
NCT03093974,Essen,NA,Germany,7.0115552,51.4556432
NCT03093974,Frankfurt am Main,NA,Germany,8.6821267,50.1109221
NCT03093974,Frankfurt am Main,NA,Germany,8.6821267,50.1109221
NCT03093974,Hamburg,NA,Germany,9.9936818,53.5510846
NCT03093974,Hannover,NA,Germany,9.732010400000002,52.3758916
NCT03093974,Lübeck,NA,Germany,10.6865593,53.8654673
NCT03093974,Muenchen,NA,Germany,11.5819806,48.1351253
NCT03093974,München,NA,Germany,11.5819806,48.1351253
NCT03093974,Münster,NA,Germany,7.6261347,51.9606649
NCT03093974,Athens,NA,Greece,23.7275388,37.9838096
NCT03093974,Haifa,NA,Israel,34.989571,32.7940463
NCT03093974,Jerusalem,NA,Israel,35.21371,31.768319
NCT03093974,Kfar Saba,NA,Israel,34.90761,32.178195
NCT03093974,Petah Tikva,NA,Israel,34.887762,32.084041
NCT03093974,Reẖovot,NA,Israel,34.811272,31.892773
NCT03093974,Tsrifin,NA,Israel,34.840566,31.957328
NCT03093974,Orbassano,TO,Italy,7.5353625,45.00572649999999
NCT03093974,Bari,NA,Italy,12.56738,41.87194
NCT03093974,Brescia,NA,Italy,10.2118019,45.5415526
NCT03093974,Foggia,NA,Italy,15.5446302,41.4621984
NCT03093974,Milano,NA,Italy,9.189982,45.464203500000004
NCT03093974,Monza,NA,Italy,9.2744485,45.5845001
NCT03093974,Palermo,NA,Italy,13.3614868,38.11569
NCT03093974,Palermo,NA,Italy,13.3614868,38.11569
NCT03093974,Pavia,NA,Italy,9.1582069,45.1847248
NCT03093974,Pisa,NA,Italy,11.7566298,45.1738544
NCT03093974,Roma,NA,Italy,12.4801802,41.8723722
NCT03093974,Groningen,NA,Netherlands,6.566501799999999,53.2193835
NCT03093974,Auckland,NA,New Zealand,174.7644881,-36.85088270000001
NCT03093974,Auckland,NA,New Zealand,174.7644881,-36.85088270000001
NCT03093974,Christchurch,NA,New Zealand,172.6305589,-43.5320214
NCT03093974,Dunedin,NA,New Zealand,170.5005957,-45.8795455
NCT03093974,Hamilton West,NA,New Zealand,175.2811379,-37.7983156
NCT03093974,Aveiro,NA,Portugal,-8.6537539,40.6405055
NCT03093974,Braga,NA,Portugal,-8.426506999999999,41.5454486
NCT03093974,Coimbra,NA,Portugal,-8.4102573,40.2033145
NCT03093974,Guimarães,NA,Portugal,-8.2917857,41.44253
NCT03093974,Lisboa,NA,Portugal,-9.1393366,38.7222524
NCT03093974,Loures,NA,Portugal,-9.1741095,38.831549
NCT03093974,Porto,NA,Portugal,-8.629105299999999,41.1579438
NCT03093974,Porto,NA,Portugal,-8.629105299999999,41.1579438
NCT03093974,Vila Nova De Gaia,NA,Portugal,-8.611785099999999,41.1238759
NCT03093974,A Coruña,NA,Spain,-8.4115401,43.3623436
NCT03093974,Barcelona,NA,Spain,2.168568,41.3873974
NCT03093974,Barcelona,NA,Spain,2.168568,41.3873974
NCT03093974,Barcelona,NA,Spain,2.168568,41.3873974
NCT03093974,Lleida,NA,Spain,0.6200205999999999,41.61772209999999
NCT03093974,Madrid,NA,Spain,-3.7037902,40.4167754
NCT03093974,Madrid,NA,Spain,-3.7037902,40.4167754
NCT03093974,Santander,NA,Spain,-3.74922,40.46366700000001
NCT03093974,Sevilla,NA,Spain,-5.9844589,37.3890924
NCT03093974,Torrejón de Ardoz,NA,Spain,-3.4754967,40.4567552
NCT03093974,Usansolo,NA,Spain,-2.8190749,43.2187353
NCT03093974,Valencia,NA,Spain,-0.7532808999999999,39.4840108
NCT03093974,Valencia,NA,Spain,-0.7532808999999999,39.4840108
NCT03093974,Saint Gallen,NA,Switzerland,9.3767173,47.4244818
NCT03093974,Cambridge,NA,United Kingdom,0.1312729,52.1950788
NCT03093974,Cardiff,NA,United Kingdom,-3.1680962,51.483707
NCT03093974,Dundee,NA,United Kingdom,-2.970721,56.462018
NCT03093974,Edinburgh,NA,United Kingdom,-3.188267,55.953252
NCT03093974,Gillingham,NA,United Kingdom,0.551438,51.386322
NCT03093974,Glasgow,NA,United Kingdom,-4.251806,55.864237
NCT03093974,Kirkcaldy,NA,United Kingdom,-3.158137,56.1168249
NCT03093974,Liverpool,NA,United Kingdom,-2.9915726,53.4083714
NCT03093974,Llanelli,NA,United Kingdom,-4.160248,51.680886
NCT03093974,London,NA,United Kingdom,-0.1275862,51.5072178
NCT03093974,Manchester,NA,United Kingdom,-2.2426305,53.4807593
NCT03093974,Newcastle upon Tyne,NA,United Kingdom,-1.61778,54.978252
NCT03093974,Worcester,NA,United Kingdom,-2.221575,52.193636
NCT03147651,Haifa,NA,Israel,34.989571,32.7940463
NCT03218917,Birmingham,Alabama,United States,-86.8103567,33.5185892
NCT03218917,Peoria,Arizona,United States,-112.2373779,33.5805955
NCT03218917,Newport Beach,California,United States,-117.9298493,33.6188829
NCT03218917,Palm Springs,California,United States,-116.5452921,33.8302961
NCT03218917,Sacramento,California,United States,-121.4943996,38.5815719
NCT03218917,Stanford,California,United States,-122.1660756,37.42410599999999
NCT03218917,Denver,Colorado,United States,-104.990251,39.7392358
NCT03218917,Farmington,Connecticut,United States,-72.79502699999999,41.7360305
NCT03218917,Washington,District of Columbia,United States,-77.0368707,38.9071923
NCT03218917,Celebration,Florida,United States,-81.5407793,28.3188815
NCT03218917,Clearwater,Florida,United States,-82.8001026,27.9658533
NCT03218917,Gainesville,Florida,United States,-82.32482619999999,29.6516344
NCT03218917,Miami Lakes,Florida,United States,-80.30866189999999,25.9087056
NCT03218917,Miami,Florida,United States,-80.1917902,25.7616798
NCT03218917,Sarasota,Florida,United States,-82.5310117,27.336465
NCT03218917,Atlanta,Georgia,United States,-84.3879824,33.7489954
NCT03218917,Chicago,Illinois,United States,-87.6297982,41.8781136
NCT03218917,Iowa City,Iowa,United States,-91.5301683,41.6611277
NCT03218917,New Orleans,Louisiana,United States,-90.0715323,29.95106579999999
NCT03218917,Baltimore,Maryland,United States,-76.6121893,39.2903848
NCT03218917,Towson,Maryland,United States,-76.6019125,39.4014955
NCT03218917,Westminster,Maryland,United States,-76.9958149,39.5753791
NCT03218917,Ann Arbor,Michigan,United States,-83.7430378,42.2808256
NCT03218917,New York,New York,United States,-74.0059728,40.7127753
NCT03218917,New York,New York,United States,-74.0059728,40.7127753
NCT03218917,Chapel Hill,North Carolina,United States,-79.0558445,35.9131996
NCT03218917,Charlotte,North Carolina,United States,-80.8431267,35.2270869
NCT03218917,Winston-Salem,North Carolina,United States,-80.244216,36.09985959999999
NCT03218917,Cleveland,Ohio,United States,-81.6943605,41.49932
NCT03218917,Cleveland,Ohio,United States,-81.6943605,41.49932
NCT03218917,Portland,Oregon,United States,-122.6783853,45.515232
NCT03218917,Philadelphia,Pennsylvania,United States,-75.1652215,39.9525839
NCT03218917,Philadelphia,Pennsylvania,United States,-75.1652215,39.9525839
NCT03218917,Mesquite,Texas,United States,-96.5991593,32.76679550000001
NCT03218917,Tyler,Texas,United States,-95.30106239999999,32.3512601
NCT03218917,Tacoma,Washington,United States,-122.4442906,47.2528768
NCT03218917,Concord,New South Wales,Australia,151.1033131,-33.8559625
NCT03218917,Brisbane,Queensland,Australia,153.0260341,-27.4704528
NCT03218917,Brisbane,Queensland,Australia,153.0260341,-27.4704528
NCT03218917,Chermside,Queensland,Australia,153.0310009,-27.3858322
NCT03218917,Adelaide,South Australia,Australia,138.6007456,-34.9284989
NCT03218917,Kent Town,South Australia,Australia,138.6188177,-34.9202708
NCT03218917,Box Hill,Victoria,Australia,145.1238563,-37.8181073
NCT03218917,Melbourne,Victoria,Australia,144.9630576,-37.8136276
NCT03218917,Nedlands,Western Australia,Australia,115.8057894,-31.9787216
NCT03218917,Leuven,Vlaams Brabant,Belgium,4.7137645,50.8822871
NCT03218917,Razgrad,Momina,Bulgaria,26.5411164,43.53367189999999
NCT03218917,Plovdiv,NA,Bulgaria,24.7452904,42.1354079
NCT03218917,Sliven,NA,Bulgaria,26.3228685,42.6816536
NCT03218917,Stara Zagora,NA,Bulgaria,25.6344644,42.4257769
NCT03218917,Hvidovre,Capital Region,Denmark,12.475386,55.64252200000001
NCT03218917,Aarhus,NA,Denmark,10.1660237,56.1998772
NCT03218917,Roskilde,NA,Denmark,12.087845,55.64191
NCT03218917,Donaustauf,Bavaria,Germany,12.2073854,49.0324537
NCT03218917,Munich,Bavaria,Germany,11.5819806,48.1351253
NCT03218917,Nuernberg,Bayern,Germany,11.0766654,49.4521018
NCT03218917,Frankfurt,Hessen,Germany,8.6821267,50.1109221
NCT03218917,Frankfurt,Hessen,Germany,8.6821267,50.1109221
NCT03218917,Essen,NRW,Germany,7.0115552,51.4556432
NCT03218917,Borstel,Schleswig-Holstein,Germany,9.7984239,53.9688715
NCT03218917,Jena,Thuringen,Germany,11.5892372,50.927054
NCT03218917,Berlin,NA,Germany,13.404954,52.52000659999999
NCT03218917,München,NA,Germany,11.5819806,48.1351253
NCT03218917,Milan,Lombardia,Italy,9.189982,45.464203500000004
NCT03218917,Monza,Monza E Brianza,Italy,9.2744485,45.5845001
NCT03218917,Pisa,Via Paradisa 2,Italy,10.442904,43.7066007
NCT03218917,Pavia,NA,Italy,9.1582069,45.1847248
NCT03218917,Telese Terme,NA,Italy,14.5262026,41.2167594
NCT03218917,Incheon,Jung-gu,"Korea, Republic of",126.6214796,37.4737341
NCT03218917,Incheon,Namdong-gu,"Korea, Republic of",126.7319416,37.4469893
NCT03218917,Gwangju,NA,"Korea, Republic of",126.8526012,35.1595454
NCT03218917,Incheon,NA,"Korea, Republic of",126.7052062,37.4562557
NCT03218917,Seoul,NA,"Korea, Republic of",126.9779692,37.566535
NCT03218917,Seoul,NA,"Korea, Republic of",126.9779692,37.566535
NCT03218917,Seoul,NA,"Korea, Republic of",126.9779692,37.566535
NCT03218917,Seoul,NA,"Korea, Republic of",126.9779692,37.566535
NCT03218917,Seoul,NA,"Korea, Republic of",126.9779692,37.566535
NCT03218917,Alkmaar,NA,Netherlands,4.753375399999999,52.6323813
NCT03218917,Breda,NA,Netherlands,4.768323,51.5719149
NCT03218917,Nijmegen,NA,Netherlands,5.842828099999999,51.8448837
NCT03218917,Sittard,NA,Netherlands,5.8864788,51.0006238
NCT03218917,Tauranga,BOP,New Zealand,176.1654272,-37.6869653
NCT03218917,Hastings,Hawkes Bay,New Zealand,176.8304088,-39.6302214
NCT03218917,Dunedin,Otago,New Zealand,170.5005957,-45.8795455
NCT03218917,Hamilton,Waikato,New Zealand,175.2527624,-37.7825893
NCT03218917,Auckland,NA,New Zealand,174.7644881,-36.85088270000001
NCT03218917,Wrocław,Dolnośląskie,Poland,17.0385376,51.1078852
NCT03218917,Kraków,NA,Poland,19.9449799,50.06465009999999
NCT03218917,Kraków,NA,Poland,19.9449799,50.06465009999999
NCT03218917,Sucha Beskidzka,NA,Poland,19.5771139,49.7311978
NCT03218917,Łódź,NA,Poland,19.4559833,51.7592485
NCT03218917,Singapore,NA,Singapore,103.8593528,1.3035192
NCT03218917,Singapore,NA,Singapore,103.8593528,1.3035192
NCT03218917,Barcelona,NA,Spain,2.168568,41.3873974
NCT03218917,Barcelona,NA,Spain,2.168568,41.3873974
NCT03218917,Barcelona,NA,Spain,2.168568,41.3873974
NCT03218917,Girona,NA,Spain,2.8214264,41.9794005
NCT03218917,Valencia,NA,Spain,-0.7532808999999999,39.4840108
NCT03218917,Dundee,Angus,United Kingdom,-2.970721,56.462018
NCT03218917,Cambridge,Cambridgeshire,United Kingdom,0.1312729,52.1950788
NCT03218917,Blackpool,Lancashire,United Kingdom,-3.0370485,53.81674229999999
NCT03218917,Liverpool,Merseyside,United Kingdom,-2.9915726,53.4083714
NCT03218917,Edinburgh,Scotland,United Kingdom,-3.188267,55.953252
NCT03218917,Chertsey,Surrey,United Kingdom,-0.509456,51.386491
NCT03218917,Wolverhampton,West Midlands,United Kingdom,-2.1256587,52.5868159
NCT03218917,London,NA,United Kingdom,-0.1275862,51.5072178
NCT03218917,Manchester,NA,United Kingdom,-2.2426305,53.4807593
NCT03218917,Southampton,NA,United Kingdom,-1.4049018,50.9105468
NCT03428334,Hong Kong,NA,Hong Kong,114.1693611,22.3193039
NCT03460704,Newport Beach,California,United States,-117.9298493,33.6188829
NCT03460704,Palm Springs,California,United States,-116.5452921,33.8302961
NCT03460704,Reseda,California,United States,-118.5360517,34.2011141
NCT03460704,San Diego,California,United States,-117.1610838,32.715738
NCT03460704,San Diego,California,United States,-117.1610838,32.715738
NCT03460704,Centennial,Colorado,United States,-104.8771726,39.5807452
NCT03460704,Jacksonville,Florida,United States,-81.65565099999999,30.3321838
NCT03460704,Kissimmee,Florida,United States,-81.40757099999999,28.2919557
NCT03460704,Orlando,Florida,United States,-81.3789269,28.5383832
NCT03460704,Saint Petersburg,Florida,United States,-82.64029149999999,27.7676008
NCT03460704,Saint Petersburg,Florida,United States,-82.64029149999999,27.7676008
NCT03460704,Weston,Florida,United States,-80.3997748,26.1003654
NCT03460704,Chicago,Illinois,United States,-87.6297982,41.8781136
NCT03460704,Michigan City,Indiana,United States,-86.8950297,41.70753939999999
NCT03460704,Louisville,Kentucky,United States,-85.7584557,38.2526647
NCT03460704,Rochester,Minnesota,United States,-92.4801989,44.0121221
NCT03460704,Chesterfield,Missouri,United States,-90.5770675,38.6631083
NCT03460704,Lebanon,New Hampshire,United States,-72.2517569,43.6422934
NCT03460704,New York,New York,United States,-74.0059728,40.7127753
NCT03460704,Chapel Hill,North Carolina,United States,-79.0558445,35.9131996
NCT03460704,Durham,North Carolina,United States,-78.898619,35.9940329
NCT03460704,Winston-Salem,North Carolina,United States,-80.244216,36.09985959999999
NCT03460704,Portland,Oregon,United States,-122.6783853,45.515232
NCT03460704,Tyler,Texas,United States,-95.30106239999999,32.3512601
NCT03460704,Abingdon,Virginia,United States,-81.9773482,36.70983349999999
NCT03460704,Richmond,Virginia,United States,-77.4360481,37.5407246
NCT03460704,Northwest,Washington,United States,-77.04493269999999,38.9380912
NCT03460704,Buenos Aires,NA,Argentina,-58.3815591,-34.6036844
NCT03460704,Buenos Aires,NA,Argentina,-58.3815591,-34.6036844
NCT03460704,Buenos Aires,NA,Argentina,-58.3815591,-34.6036844
NCT03460704,Buenos Aires,NA,Argentina,-58.3815591,-34.6036844
NCT03460704,Buenos Aires,NA,Argentina,-58.3815591,-34.6036844
NCT03460704,Buenos Aires,NA,Argentina,-58.3815591,-34.6036844
NCT03460704,Ciudad Autónoma de Buenos Aires,NA,Argentina,-58.3815591,-34.6036844
NCT03460704,Ciudad Autónoma de Buenos Aires,NA,Argentina,-58.3815591,-34.6036844
NCT03460704,Quilmes,NA,Argentina,-58.25460510000001,-34.7206336
NCT03460704,Santa Fe,NA,Argentina,-60.697294,-31.6106578
NCT03460704,Tucumán,NA,Argentina,-65.2175903,-26.8082848
NCT03460704,Adelaide,NA,Australia,138.6007456,-34.9284989
NCT03460704,Brisbane,NA,Australia,153.0260341,-27.4704528
NCT03460704,Kent Town,NA,Australia,138.6188177,-34.9202708
NCT03460704,Murdoch,NA,Australia,115.8425735,-32.0698917
NCT03460704,South Brisbane,NA,Australia,153.0134124,-27.4743523
NCT03460704,Sydney,NA,Australia,151.2092955,-33.8688197
NCT03460704,Burlington,NA,Canada,-79.7990319,43.3255196
NCT03460704,Kelowna,NA,Canada,-119.4960106,49.8879519
NCT03460704,London,NA,Canada,-106.346771,56.130366
NCT03460704,Montréal,NA,Canada,-73.567256,45.5016889
NCT03460704,Ottawa,NA,Canada,-75.69719309999999,45.4215296
NCT03460704,Quebec City,NA,Canada,-71.2079809,46.8138783
NCT03460704,Winnipeg,NA,Canada,-97.13837439999999,49.895136
NCT03460704,Amiens,NA,France,2.295753,49.894067
NCT03460704,Brest,NA,France,-4.486076,48.390394
NCT03460704,Créteil,NA,France,2.455572,48.790367
NCT03460704,Grenoble,NA,France,5.724524,45.188529
NCT03460704,Lyon,NA,France,4.835659,45.764043
NCT03460704,Montpellier,NA,France,3.876716,43.610769
NCT03460704,Nice,NA,France,2.213749,46.227638
NCT03460704,Pessac,NA,France,-0.630386,44.80583
NCT03460704,Reims,NA,France,4.031696,49.258329
NCT03460704,Toulouse,NA,France,1.444209,43.604652
NCT03460704,Frankfurt,NA,Germany,8.6821267,50.1109221
NCT03460704,Hanover,NA,Germany,9.732010400000002,52.3758916
NCT03460704,Athens,NA,Greece,23.7275388,37.9838096
NCT03460704,Haifa,NA,Israel,34.989571,32.7940463
NCT03460704,Jerusalem,NA,Israel,35.21371,31.768319
NCT03460704,Kfar Saba,NA,Israel,34.90761,32.178195
NCT03460704,Milano,NA,Italy,9.189982,45.464203500000004
NCT03460704,Monza,NA,Italy,9.2744485,45.5845001
NCT03460704,Christchurch,NA,New Zealand,172.6305589,-43.5320214
NCT03460704,Havelock North,NA,New Zealand,176.8771552,-39.6702241
NCT03460704,Mount Cook,NA,New Zealand,170.1417883,-43.5949749
NCT03460704,Tauranga,NA,New Zealand,176.1654272,-37.6869653
NCT03460704,Białystok,NA,Poland,23.1688403,53.13248859999999
NCT03460704,Bielsko-Biala,NA,Poland,19.0583845,49.8223768
NCT03460704,Cracovia,NA,Poland,19.9449799,50.06465009999999
NCT03460704,Grudziądz,NA,Poland,18.753565,53.4837486
NCT03460704,Legnica,NA,Poland,16.1553231,51.2070067
NCT03460704,Lublin,NA,Poland,22.5684463,51.2464536
NCT03460704,Ostrowiec Świętokrzyski,NA,Poland,21.3851915,50.9295234
NCT03460704,Piaseczno,NA,Poland,21.0238602,52.0811536
NCT03460704,Proszowice,NA,Poland,20.2890751,50.1921916
NCT03460704,Rzeszów,NA,Poland,21.9991196,50.0411867
NCT03460704,Sosnowiec,NA,Poland,19.1040791,50.28626380000001
NCT03460704,Warszawa,NA,Poland,21.0122287,52.2296756
NCT03460704,Wrocław,NA,Poland,17.0385376,51.1078852
NCT03460704,Łódź,NA,Poland,19.4559833,51.7592485
NCT03460704,Guimarães,NA,Portugal,-8.2917857,41.44253
NCT03460704,Lisboa,NA,Portugal,-9.1393366,38.7222524
NCT03818646,Papworth Everard,Cambridgeshire,United Kingdom,-0.116833,52.24797
NCT03988816,São Paulo,SP,Brazil,-46.6395571,-23.5557714
NCT04010799,Frankfurt/Main,NA,Germany,8.6821267,50.1109221
NCT04017312,New York,New York,United States,-74.0059728,40.7127753
NCT04017312,Nashville,Tennessee,United States,-86.7816016,36.1626638
NCT04122547,Songkhla,NA,Thailand,100.5953813,7.189765899999998
NCT04170114,Istanbul,NA,Turkey,28.9783589,41.0082376
NCT04278040,Moscow,NA,Russian Federation,37.6173,55.755826
NCT04322929,Hong Kong,NA,Hong Kong,114.1693611,22.3193039
NCT04538859,Hong Kong,Please Select,Hong Kong,114.1693611,22.3193039
NCT04594369,Birmingham,Alabama,United States,-86.8103567,33.5185892
NCT04594369,Conway,Arkansas,United States,-92.4366522,35.0917506
NCT04594369,Little Rock,Arkansas,United States,-92.2880157,34.7444618
NCT04594369,Fresno,California,United States,-119.7871247,36.7377981
NCT04594369,Los Angeles,California,United States,-118.2436849,34.0522342
NCT04594369,Los Angeles,California,United States,-118.2436849,34.0522342
NCT04594369,Newport Beach,California,United States,-117.9298493,33.6188829
NCT04594369,Northridge,California,United States,-118.530123,34.2381251
NCT04594369,Palm Springs,California,United States,-116.5452921,33.8302961
NCT04594369,Palm Springs,California,United States,-116.5452921,33.8302961
NCT04594369,Sacramento,California,United States,-121.4943996,38.5815719
NCT04594369,San Diego,California,United States,-117.1610838,32.715738
NCT04594369,San Diego,California,United States,-117.1610838,32.715738
NCT04594369,Santa Barbara,California,United States,-119.6981901,34.4208305
NCT04594369,Ventura,California,United States,-119.2945199,34.2804923
NCT04594369,Denver,Colorado,United States,-104.990251,39.7392358
NCT04594369,Lafayette,Colorado,United States,-105.0897058,39.9935959
NCT04594369,Farmington,Connecticut,United States,-72.79502699999999,41.7360305
NCT04594369,Washington,District of Columbia,United States,-77.0368707,38.9071923
NCT04594369,Brandon,Florida,United States,-82.2859247,27.937801
NCT04594369,Clearwater,Florida,United States,-82.8001026,27.9658533
NCT04594369,Fort Lauderdale,Florida,United States,-80.13731740000001,26.1224386
NCT04594369,Gainesville,Florida,United States,-82.32482619999999,29.6516344
NCT04594369,Jacksonville,Florida,United States,-81.65565099999999,30.3321838
NCT04594369,Jacksonville,Florida,United States,-81.65565099999999,30.3321838
NCT04594369,Kissimmee,Florida,United States,-81.40757099999999,28.2919557
NCT04594369,Kissimmee,Florida,United States,-81.40757099999999,28.2919557
NCT04594369,Leesburg,Florida,United States,-81.87785819999999,28.810823
NCT04594369,Miami Lakes,Florida,United States,-80.30866189999999,25.9087056
NCT04594369,Miami,Florida,United States,-80.1917902,25.7616798
NCT04594369,Naples,Florida,United States,-81.7948103,26.1420358
NCT04594369,New Port Richey,Florida,United States,-82.7192671,28.2441768
NCT04594369,Orlando,Florida,United States,-81.3789269,28.5383832
NCT04594369,Orlando,Florida,United States,-81.3789269,28.5383832
NCT04594369,Plantation,Florida,United States,-80.23310359999999,26.1275862
NCT04594369,Saint Petersburg,Florida,United States,-82.64029149999999,27.7676008
NCT04594369,Saint Petersburg,Florida,United States,-82.64029149999999,27.7676008
NCT04594369,Sarasota,Florida,United States,-82.5310117,27.336465
NCT04594369,Sebring,Florida,United States,-81.440907,27.495592
NCT04594369,Atlanta,Georgia,United States,-84.3879824,33.7489954
NCT04594369,Augusta,Georgia,United States,-82.0105148,33.4734978
NCT04594369,Rincon,Georgia,United States,-81.2353612,32.2947732
NCT04594369,Chicago,Illinois,United States,-87.6297982,41.8781136
NCT04594369,Maywood,Illinois,United States,-87.8431155,41.8791979
NCT04594369,Iowa City,Iowa,United States,-91.5301683,41.6611277
NCT04594369,Kansas City,Kansas,United States,-94.62678729999999,39.11553139999999
NCT04594369,New Orleans,Louisiana,United States,-90.0715323,29.95106579999999
NCT04594369,New Orleans,Louisiana,United States,-90.0715323,29.95106579999999
NCT04594369,Baltimore,Maryland,United States,-76.6121893,39.2903848
NCT04594369,Columbia,Maryland,United States,-76.86104619999999,39.2037144
NCT04594369,Towson,Maryland,United States,-76.6019125,39.4014955
NCT04594369,Boston,Massachusetts,United States,-71.0588801,42.3600825
NCT04594369,Springfield,Massachusetts,United States,-72.589811,42.1014831
NCT04594369,Worcester,Massachusetts,United States,-71.8022934,42.2625932
NCT04594369,Rochester,Minnesota,United States,-92.4801989,44.0121221
NCT04594369,Chesterfield,Missouri,United States,-90.5770675,38.6631083
NCT04594369,Saint Louis,Missouri,United States,-90.19940419999999,38.6270025
NCT04594369,Lincoln,Nebraska,United States,-96.7025955,40.813616
NCT04594369,Omaha,Nebraska,United States,-95.9345034,41.2565369
NCT04594369,Toms River,New Jersey,United States,-74.1979458,39.9537358
NCT04594369,Bronx,New York,United States,-73.8648268,40.8447819
NCT04594369,New Hyde Park,New York,United States,-73.6879082,40.7351018
NCT04594369,New York,New York,United States,-74.0059728,40.7127753
NCT04594369,New York,New York,United States,-74.0059728,40.7127753
NCT04594369,Potsdam,New York,United States,-74.9813084,44.6697805
NCT04594369,Chapel Hill,North Carolina,United States,-79.0558445,35.9131996
NCT04594369,Charlotte,North Carolina,United States,-80.8431267,35.2270869
NCT04594369,Gastonia,North Carolina,United States,-81.1870849,35.2621735
NCT04594369,Huntersville,North Carolina,United States,-80.84285040000002,35.410694
NCT04594369,Winston-Salem,North Carolina,United States,-80.244216,36.09985959999999
NCT04594369,Cincinnati,Ohio,United States,-84.5120196,39.1031182
NCT04594369,Cleveland,Ohio,United States,-81.6943605,41.49932
NCT04594369,Cleveland,Ohio,United States,-81.6943605,41.49932
NCT04594369,Portland,Oregon,United States,-122.6783853,45.515232
NCT04594369,DuBois,Pennsylvania,United States,-78.7583257,41.1210115
NCT04594369,Philadelphia,Pennsylvania,United States,-75.1652215,39.9525839
NCT04594369,Anderson,South Carolina,United States,-82.6501332,34.5034394
NCT04594369,Charleston,South Carolina,United States,-79.93105120000001,32.7764749
NCT04594369,Rock Hill,South Carolina,United States,-81.02507840000001,34.9248667
NCT04594369,Franklin,Tennessee,United States,-86.8688899,35.9250637
NCT04594369,Dallas,Texas,United States,-96.79698789999999,32.7766642
NCT04594369,Galveston,Texas,United States,-94.7976958,29.3013479
NCT04594369,McKinney,Texas,United States,-96.6389342,33.1983388
NCT04594369,Mesquite,Texas,United States,-96.5991593,32.76679550000001
NCT04594369,San Antonio,Texas,United States,-98.4945922,29.4251905
NCT04594369,Tyler,Texas,United States,-95.30106239999999,32.3512601
NCT04594369,Salt Lake City,Utah,United States,-111.8910474,40.7607793
NCT04594369,Williamsburg,Virginia,United States,-76.7074571,37.2707022
NCT04594369,Vancouver,Washington,United States,-122.673865,45.6280277
NCT04594369,Ciudad Autónoma de Buenos Aires,Buenos Aires,Argentina,-58.3815591,-34.6036844
NCT04594369,Ciudad Autónoma de Buenos Aires,Buenos Aires,Argentina,-58.3815591,-34.6036844
NCT04594369,Ciudad Autónoma de Buenos Aires,Buenos Aires,Argentina,-58.3815591,-34.6036844
NCT04594369,Ciudad Autónoma de Buenos Aires,Buenos Aires,Argentina,-58.3815591,-34.6036844
NCT04594369,Ciudad Autónoma de BuenosAires,Buenos Aires,Argentina,-58.3815591,-34.6036844
NCT04594369,Ciudad Autónoma de BuenosAires,Buenos Aires,Argentina,-58.3815591,-34.6036844
NCT04594369,la Plata,Buenos Aires,Argentina,-57.95356570000001,-34.9204948
NCT04594369,Mar del Plata,Buenos Aires,Argentina,-57.5426106,-38.0054771
NCT04594369,Mar Del Plata,Buenos Aires,Argentina,-57.5426106,-38.0054771
NCT04594369,Villa Vatteone,Buenos Aires,Argentina,-58.26513660000001,-34.8302239
NCT04594369,Ciudad Autónoma de Buenos Aires,Ciudad Autónoma De BuenosAires,Argentina,-58.3815591,-34.6036844
NCT04594369,Ciudad Autónoma de Buenos Aires,Ciudad Autónoma De BuenosAires,Argentina,-58.3815591,-34.6036844
NCT04594369,City Of Mendoza,Mendoza,Argentina,-68.8458386,-32.8894587
NCT04594369,Rosario,Santa Fe,Argentina,-60.69304159999999,-32.9587022
NCT04594369,Rosario,Santa Fe,Argentina,-60.69304159999999,-32.9587022
NCT04594369,San Miguel de Tucumán,Tucumán,Argentina,-65.2175903,-26.8082848
NCT04594369,San Miguel de Tucumán,Tucumán,Argentina,-65.2175903,-26.8082848
NCT04594369,Córdoba,NA,Argentina,-64.1887761,-31.42008329999999
NCT04594369,Mendoza,NA,Argentina,-68.8458386,-32.8894587
NCT04594369,Rosario,NA,Argentina,-60.69304159999999,-32.9587022
NCT04594369,Santa Fe,NA,Argentina,-60.697294,-31.6106578
NCT04594369,Kogarah,New South Wales,Australia,151.1372588,-33.9643523
NCT04594369,New Lambton Heights,New South Wales,Australia,151.6970607,-32.9247631
NCT04594369,Westmead,New South Wales,Australia,150.9869597,-33.8085661
NCT04594369,Cairns North,Queensland,Australia,145.7594595,-16.9038525
NCT04594369,Chermside,Queensland,Australia,153.0310009,-27.3858322
NCT04594369,Greenslopes,Queensland,Australia,153.0513859,-27.5080911
NCT04594369,South Brisbane,Queensland,Australia,153.0134124,-27.4743523
NCT04594369,Adelaide,South Australia,Australia,138.6007456,-34.9284989
NCT04594369,Bedford Park,South Australia,Australia,138.5670836,-35.0224646
NCT04594369,Kent Town,South Australia,Australia,138.6188177,-34.9202708
NCT04594369,Woodville South,South Australia,Australia,138.535,-34.881
NCT04594369,Box Hill,Victoria,Australia,145.1238563,-37.8181073
NCT04594369,Clayton,Victoria,Australia,145.127492,-37.9145479
NCT04594369,Murdoch,Western Australia,Australia,115.8425735,-32.0698917
NCT04594369,Nedlands,Western Australia,Australia,115.8057894,-31.9787216
NCT04594369,Concord,NA,Australia,151.1033131,-33.8559625
NCT04594369,Spearwood,NA,Australia,115.7826495,-32.1037193
NCT04594369,Graz,Steiermark,Austria,15.439504,47.070714
NCT04594369,Linz,NA,Austria,14.28583,48.30694
NCT04594369,Gent,Oost-Vlaanderen,Belgium,3.7303351,51.0500182
NCT04594369,Roeselare,West-Vlaanderen,Belgium,3.1292766,50.9498725
NCT04594369,Brussels,NA,Belgium,4.3571696,50.8476424
NCT04594369,Edegem,NA,Belgium,4.4313468,51.1561016
NCT04594369,Leuven,NA,Belgium,4.7137645,50.8822871
NCT04594369,Liège,NA,Belgium,5.569749799999999,50.63295859999999
NCT04594369,Mechelen,NA,Belgium,4.4775553,51.0259143
NCT04594369,Sint-Niklaas,NA,Belgium,4.1386501000000004,51.1653295
NCT04594369,Passo Fundo,Rio Grande Do Sul,Brazil,-52.41027949999999,-28.2622601
NCT04594369,Porto Alegre,Rio Grande Do Sul,Brazil,-51.2089887,-30.0368176
NCT04594369,Blumenau,Santa Catarina,Brazil,-49.0717331,-26.9165792
NCT04594369,Santo André,São Paulo,Brazil,-46.536706,-23.6788863
NCT04594369,Santo André,São Paulo,Brazil,-46.536706,-23.6788863
NCT04594369,Botucatu,NA,Brazil,-48.444658,-22.8873233
NCT04594369,São Bernardo do Campo,NA,Brazil,-46.5536333,-23.7018047
NCT04594369,São Paulo,NA,Brazil,-46.6395571,-23.5557714
NCT04594369,Sofia,Sofia-Grad,Bulgaria,23.3218675,42.6977082
NCT04594369,Sofia,Sofia-Grad,Bulgaria,23.3218675,42.6977082
NCT04594369,Sofia,Sofia-Grad,Bulgaria,23.3218675,42.6977082
NCT04594369,Blagoevgrad,NA,Bulgaria,23.0943385,42.0208569
NCT04594369,Gabrovo,NA,Bulgaria,25.3186837,42.8742212
NCT04594369,Kozloduy,NA,Bulgaria,23.7246154,43.77556149999999
NCT04594369,Lovech,NA,Bulgaria,24.7141906,43.1369534
NCT04594369,Montana,NA,Bulgaria,23.2257292,43.4085161
NCT04594369,Pazardzhik,NA,Bulgaria,24.3335662,42.1927654
NCT04594369,Pleven,NA,Bulgaria,24.6066847,43.4170423
NCT04594369,Plovdiv,NA,Bulgaria,24.7452904,42.1354079
NCT04594369,Ruse,NA,Bulgaria,25.9656554,43.83557130000001
NCT04594369,Sliven,NA,Bulgaria,26.3228685,42.6816536
NCT04594369,Sofia,NA,Bulgaria,25.48583,42.733883
NCT04594369,Veliko Tarnovo,NA,Bulgaria,25.6171514,43.0756739
NCT04594369,Vidin,NA,Bulgaria,22.8679302,43.996159
NCT04594369,Vratsa,NA,Bulgaria,23.5528803,43.2102375
NCT04594369,Toronto,Ontario,Canada,-79.3831843,43.653226
NCT04594369,Montreal,Quebec,Canada,-73.567256,45.5016889
NCT04594369,Saint-Charles-Borromée,Quebec,Canada,-73.4626679,46.048522
NCT04594369,Valdivia,Los Ríos,Chile,-73.24253329999999,-39.8173788
NCT04594369,Curicó,Maule,Chile,-71.2528803,-34.9779853
NCT04594369,Talca,Maule,Chile,-71.6484804,-35.4232444
NCT04594369,Providencia,Región-MetropolitanadeSantiago,Chile,-70.6093325,-33.4314474
NCT04594369,Providencia,Región-MetropolitanadeSantiago,Chile,-70.6093325,-33.4314474
NCT04594369,Providencia,Región-MetropolitanadeSantiago,Chile,-70.6093325,-33.4314474
NCT04594369,Quillota,NA,Chile,-71.2497156,-32.8803027
NCT04594369,Medellín,Antioquia,Colombia,-75.56581530000001,6.2476376
NCT04594369,Zipaquira,Cundinamarca,Colombia,-73.990955,5.021476
NCT04594369,Bogotá,Distrito Capital De Bogotá,Colombia,-74.072092,4.710988599999999
NCT04594369,Floridablanca,Santander,Colombia,-73.0759446,7.088298099999999
NCT04594369,Cali,Valle Del Cauca,Colombia,-76.5319854,3.4516467
NCT04594369,Cali,NA,Colombia,-74.297333,4.570868
NCT04594369,Hvidovre,Capital,Denmark,12.475386,55.64252200000001
NCT04594369,Odense C,South Denmark,Denmark,10.3833951,55.394786
NCT04594369,Vejle,South Denmark,Denmark,9.536354099999999,55.7113112
NCT04594369,Aalborg,NA,Denmark,9.921747,57.0488195
NCT04594369,Aarhus,NA,Denmark,10.1660237,56.1998772
NCT04594369,Hellerup,NA,Denmark,12.569196,55.73665399999999
NCT04594369,Roskilde,NA,Denmark,12.087845,55.64191
NCT04594369,Strasbourg,Bas-Rhin,France,7.752111299999999,48.5734053
NCT04594369,Montpellier,Hérault,France,3.876716,43.610769
NCT04594369,Tours,Indre-et-Loire,France,0.68484,47.394144
NCT04594369,Amiens cedex 1,NA,France,2.295753,49.894067
NCT04594369,Creteil,NA,France,2.455572,48.790367
NCT04594369,Nantes,NA,France,-1.553621,47.218371
NCT04594369,Nice,NA,France,2.213749,46.227638
NCT04594369,Paris,NA,France,2.3522219,48.856614
NCT04594369,Saint-Pierre,NA,France,-0.5718456,44.84043030000001
NCT04594369,Toulouse,NA,France,1.444209,43.604652
NCT04594369,Heidelberg,Baden-Württemberg,Germany,8.6724335,49.3987524
NCT04594369,Donaustauf,Bayern,Germany,12.2073854,49.0324537
NCT04594369,München,Bayern,Germany,11.5819806,48.1351253
NCT04594369,München,Bayern,Germany,11.5819806,48.1351253
NCT04594369,Potsdam,Brandenburg,Germany,13.0644729,52.3905689
NCT04594369,Frankfurt am Main,Hessen,Germany,8.6821267,50.1109221
NCT04594369,Frankfurt,Hessen,Germany,8.6821267,50.1109221
NCT04594369,Marburg,Hessen,Germany,8.7657677,50.8018843
NCT04594369,Marburg,Hessen,Germany,8.7657677,50.8018843
NCT04594369,Neu-Isenburg,Hessen,Germany,8.6952638,50.0522076
NCT04594369,Borstel,Niedersachsen,Germany,8.9696763,52.6704544
NCT04594369,Essen,Nordrhein-Westfalen,Germany,7.0115552,51.4556432
NCT04594369,Homburg,Saarland,Germany,7.3398427999999996,49.3295827
NCT04594369,Halle,Sachsen-Anhalt,Germany,11.9662371,51.49535669999999
NCT04594369,Leipzig,Sachsen,Germany,12.3730747,51.3396955
NCT04594369,Geesthacht,Schleswig-Holstein,Germany,10.3611665,53.4379562
NCT04594369,Lübeck,Schleswig-Holstein,Germany,10.6865593,53.8654673
NCT04594369,Berlin,NA,Germany,13.404954,52.52000659999999
NCT04594369,Berlin,NA,Germany,13.404954,52.52000659999999
NCT04594369,Berlin,NA,Germany,13.404954,52.52000659999999
NCT04594369,Berlin,NA,Germany,13.404954,52.52000659999999
NCT04594369,Berlin,NA,Germany,13.404954,52.52000659999999
NCT04594369,Dresden,NA,Germany,13.7372621,51.0504088
NCT04594369,Frankfurt,NA,Germany,8.6821267,50.1109221
NCT04594369,Hannover,NA,Germany,9.732010400000002,52.3758916
NCT04594369,Hannover,NA,Germany,9.732010400000002,52.3758916
NCT04594369,Mainz,NA,Germany,8.2472526,49.9928617
NCT04594369,Muenster,NA,Germany,7.6261347,51.9606649
NCT04594369,Alexandroupoli,Evros,Greece,25.873962,40.8457193
NCT04594369,Larissa,Larisa,Greece,22.4191254,39.63902239999999
NCT04594369,Herakleion,NA,Greece,25.1442126,35.3387352
NCT04594369,Thessaloniki,NA,Greece,22.9444191,40.6400629
NCT04594369,Tatabánya,Komárom-Esztergom,Hungary,18.404818,47.569246
NCT04594369,Dublin,NA,Ireland,-6.2723062,53.3387508
NCT04594369,Dublin,NA,Ireland,-6.2723062,53.3387508
NCT04594369,Dublin,NA,Ireland,-6.2723062,53.3387508
NCT04594369,Limerick,NA,Ireland,-8.6267343,52.6638367
NCT04594369,Holon,Tel-Aviv,Israel,34.787384,32.015833
NCT04594369,Ashkelon,NA,Israel,34.5742523,31.6687885
NCT04594369,Beer Sheva,NA,Israel,34.791462,31.252973
NCT04594369,Haifa,NA,Israel,34.989571,32.7940463
NCT04594369,Jerusalem,NA,Israel,35.21371,31.768319
NCT04594369,Jerusalem,NA,Israel,35.21371,31.768319
NCT04594369,Kefar-Sava,NA,Israel,34.90761,32.178195
NCT04594369,Petach Tikva,NA,Israel,34.887762,32.084041
NCT04594369,Ramat Gan,NA,Israel,34.824785,32.068424
NCT04594369,Rehovot,NA,Israel,34.811272,31.892773
NCT04594369,Zerifin,NA,Israel,34.840566,31.957328
NCT04594369,Bologna,Emilia-Romagna,Italy,11.3426163,44.494887
NCT04594369,Ferrara,Emilia-Romagna,Italy,11.619787,44.8381237
NCT04594369,Reggio Emilia,Emilia-Romagna,Italy,10.6296859,44.6989932
NCT04594369,Milano,Lombardia,Italy,9.189982,45.464203500000004
NCT04594369,Rozzano,Lombardia,Italy,9.1427661,45.3760312
NCT04594369,Siena,Toscana,Italy,11.3307574,43.31880899999999
NCT04594369,Milano,NA,Italy,9.189982,45.464203500000004
NCT04594369,Palermo,NA,Italy,13.3614868,38.11569
NCT04594369,Pavia,NA,Italy,9.1582069,45.1847248
NCT04594369,Roma,NA,Italy,12.4801802,41.8723722
NCT04594369,Toyoake,Aiti,Japan,137.0131269,35.0545485
NCT04594369,Akita-Shi,Akita,Japan,140.1034795,39.7199668
NCT04594369,Toon-Shi,Ehime,Japan,132.8722841,33.7910504
NCT04594369,Fukuoka-Shi,Hukuoka,Japan,130.4016888,33.5901838
NCT04594369,Iizuka-Shi,Hukuoka,Japan,130.6911797,33.6465627
NCT04594369,Kitakyushu-Shi,Hukuoka,Japan,130.8751773,33.8834976
NCT04594369,Yanagawa-Shi,Hukuoka,Japan,130.4058124,33.1631009
NCT04594369,Kobe-City,Hyôgo,Japan,135.19563110000001,34.6900806
NCT04594369,Kasama-Shi,Ibaraki,Japan,140.3043225,36.3452638
NCT04594369,Naka-gun,Ibaraki,Japan,140.5860497,36.4609742
NCT04594369,Takamatsu-Shi,Kagawa,Japan,134.0465405,34.342542
NCT04594369,Yokohama-Shi Konan-Ku,Kanagawa,Japan,139.5738364,35.3928393
NCT04594369,Koshi shi,Kumamoto,Japan,130.7897473,32.8860179
NCT04594369,Matsusaka-shi,Mie,Japan,136.5276154,34.5779758
NCT04594369,Tsu,Mie,Japan,136.5052256,34.7186389
NCT04594369,Sendai-shi,Miyagi,Japan,140.869418,38.268195
NCT04594369,Nagasaki-Shi,Nagasaki,Japan,129.8778888,32.7503334
NCT04594369,Chuo-ku,Niigata,Japan,139.0410359,37.904927
NCT04594369,Matsue,Simane,Japan,133.0484055,35.4681908
NCT04594369,Kiyose,Tokyo,Japan,139.5261729,35.7860547
NCT04594369,Ota-Ku,Tokyo,Japan,139.7160626,35.561407
NCT04594369,Shinagawa-ku,Tokyo,Japan,139.7303364,35.6091973
NCT04594369,Shinagawa-ku,Tokyo,Japan,139.7303364,35.6091973
NCT04594369,Shinjuku-ku,Tokyo,Japan,139.7033559,35.6938253
NCT04594369,Shimonoseki-Shi,Yamaguti,Japan,130.9411759,33.95752969999999
NCT04594369,Fukuoka-shi,NA,Japan,130.4016888,33.5901838
NCT04594369,Hamamatsu-Shi,NA,Japan,137.7274159,34.7102752
NCT04594369,Kita Kyushu-shi,NA,Japan,130.8751773,33.8834976
NCT04594369,Matsue-shi,NA,Japan,133.0484055,35.4681908
NCT04594369,Meguro-ku,NA,Japan,139.6980773,35.6414529
NCT04594369,Sakai-shi,NA,Japan,135.4831176,34.5733261
NCT04594369,Toyonaka-shi,NA,Japan,135.469953,34.7811075
NCT04594369,Ansan-si,Gyeonggido,"Korea, Republic of",126.8308848,37.3218778
NCT04594369,Bucheon-si,Gyeonggido,"Korea, Republic of",126.7660309,37.5034138
NCT04594369,Seongnam-si,Gyeonggido,"Korea, Republic of",127.1388684,37.4449168
NCT04594369,Uijeongbu-Si,Gyeonggido,"Korea, Republic of",127.0336819,37.73809800000001
NCT04594369,Seoul,Seoul Teugbyeolsi,"Korea, Republic of",126.9779692,37.566535
NCT04594369,Incheon,NA,"Korea, Republic of",126.7052062,37.4562557
NCT04594369,Incheon,NA,"Korea, Republic of",126.7052062,37.4562557
NCT04594369,Incheon,NA,"Korea, Republic of",126.7052062,37.4562557
NCT04594369,Seoul,NA,"Korea, Republic of",126.9779692,37.566535
NCT04594369,Seoul,NA,"Korea, Republic of",126.9779692,37.566535
NCT04594369,Seoul,NA,"Korea, Republic of",126.9779692,37.566535
NCT04594369,Seoul,NA,"Korea, Republic of",126.9779692,37.566535
NCT04594369,Seoul,NA,"Korea, Republic of",126.9779692,37.566535
NCT04594369,Seoul,NA,"Korea, Republic of",126.9779692,37.566535
NCT04594369,Seoul,NA,"Korea, Republic of",126.9779692,37.566535
NCT04594369,Daugavpils,Daugavpils Aprinkis,Latvia,26.536179,55.874736
NCT04594369,Jurmala,NA,Latvia,23.6168486,56.947079
NCT04594369,Kuantan,Pahang,Malaysia,103.3317173,3.8168287
NCT04594369,Kuching,Sarawak,Malaysia,110.3592927,1.553504
NCT04594369,Bandar Puncak Alam,Selangor,Malaysia,101.4282369,3.2284177
NCT04594369,Kuala Lumpur,WilayahPersekutuan KualaLumpur,Malaysia,101.686855,3.139003
NCT04594369,Kota Bahru,NA,Malaysia,102.2543825,6.124785
NCT04594369,Kuala Lumpur,NA,Malaysia,101.686855,3.139003
NCT04594369,Guadalajara,Jalisco,Mexico,-103.3496092,20.6596988
NCT04594369,Guadalajara,Jalisco,Mexico,-103.3496092,20.6596988
NCT04594369,Guadalajara,Jalisco,Mexico,-103.3496092,20.6596988
NCT04594369,Guadalajara,Jalisco,Mexico,-103.3496092,20.6596988
NCT04594369,Monterrey,Nuevo León,Mexico,-100.3161126,25.6866142
NCT04594369,Durango,NA,Mexico,-104.6531759,24.0277202
NCT04594369,Monterrey,NA,Mexico,-100.3161126,25.6866142
NCT04594369,Oaxaca,NA,Mexico,-96.7265889,17.0731842
NCT04594369,Arnhem,Gelderland,Netherlands,5.898729599999999,51.9851034
NCT04594369,Alkmaar,Noord-Holland,Netherlands,4.753375399999999,52.6323813
NCT04594369,Amsterdam,Noord-Holland,Netherlands,4.9041389,52.3675734
NCT04594369,Den Haag,Zuid-Holland,Netherlands,4.3006999,52.0704978
NCT04594369,Heerlen,NA,Netherlands,5.9794988,50.88817419999999
NCT04594369,Rotterdam,NA,Netherlands,4.4777325,51.9244201
NCT04594369,Otahuhu,Auckland,New Zealand,174.8450716,-36.9510309
NCT04594369,Christchurch,South Island,New Zealand,172.6305589,-43.5320214
NCT04594369,Dunedin,South Island,New Zealand,170.5005957,-45.8795455
NCT04594369,Hamilton,Waikato,New Zealand,175.2527624,-37.7825893
NCT04594369,Paraparaumu,Wellington,New Zealand,175.007312,-40.915496
NCT04594369,Auckland,NA,New Zealand,174.7644881,-36.85088270000001
NCT04594369,Auckland,NA,New Zealand,174.7644881,-36.85088270000001
NCT04594369,Auckland,NA,New Zealand,174.7644881,-36.85088270000001
NCT04594369,Havelock North,NA,New Zealand,176.8771552,-39.6702241
NCT04594369,Tauranga,NA,New Zealand,176.1654272,-37.6869653
NCT04594369,Wellington,NA,New Zealand,174.7787463,-41.2923814
NCT04594369,La Victoria,Lima,Peru,-77.01628989999999,-12.0734497
NCT04594369,Chancay,NA,Peru,-77.2685791,-11.5666572
NCT04594369,Lima,NA,Peru,NA,NA
NCT04594369,Lima,NA,Peru,NA,NA
NCT04594369,Lima,NA,Peru,NA,NA
NCT04594369,Piura,NA,Peru,-80.4549026,-5.3197093
NCT04594369,San Miguel,NA,Peru,-77.0934137,-12.0774344
NCT04594369,Ostrowiec Swietokrzyski,Swietokrzyskie,Poland,21.3851915,50.9295234
NCT04594369,Bialystok,NA,Poland,23.1688403,53.13248859999999
NCT04594369,Bielsko Biala,NA,Poland,19.0583845,49.8223768
NCT04594369,Katowice,NA,Poland,19.0237815,50.26489189999999
NCT04594369,Kielce,NA,Poland,20.6285677,50.8660773
NCT04594369,Krakow,NA,Poland,19.9449799,50.06465009999999
NCT04594369,Ksawerow,NA,Poland,19.4028294,51.6827806
NCT04594369,Rabka-Zdroj,NA,Poland,19.9671769,49.6090128
NCT04594369,Rzeszów,NA,Poland,21.9991196,50.0411867
NCT04594369,Siedlce,NA,Poland,22.2901645,52.1676031
NCT04594369,Sosnowiec,NA,Poland,19.1040791,50.28626380000001
NCT04594369,Sucha Beskidzka,NA,Poland,19.5771139,49.7311978
NCT04594369,Szczecin,NA,Poland,14.5528116,53.4285438
NCT04594369,Tarnow,NA,Poland,20.9858407,50.0121011
NCT04594369,Loures,Lisboa,Portugal,-9.1741095,38.831549
NCT04594369,Aveiro,NA,Portugal,-8.6537539,40.6405055
NCT04594369,Braga,NA,Portugal,-8.426506999999999,41.5454486
NCT04594369,Covilhã,NA,Portugal,-7.504327199999999,40.2805633
NCT04594369,Guarda,NA,Portugal,-7.267577199999999,40.5385972
NCT04594369,Guimaraes,NA,Portugal,-8.2917857,41.44253
NCT04594369,Lisboa,NA,Portugal,-9.1393366,38.7222524
NCT04594369,Vila Nova de Gaia,NA,Portugal,-8.611785099999999,41.1238759
NCT04594369,Belgrade,NA,Serbia,20.46123,44.8125449
NCT04594369,Belgrade,NA,Serbia,20.46123,44.8125449
NCT04594369,Nis,NA,Serbia,21.8954069,43.320926
NCT04594369,Sombor,NA,Serbia,19.1151468,45.773295
NCT04594369,Uzice,NA,Serbia,19.842471,43.8555729
NCT04594369,Bardejov,NA,Slovakia,21.2754012,49.2945857
NCT04594369,Spisská Nová Ves,NA,Slovakia,20.563649,48.9452771
NCT04594369,Santiago de Compostela,A Coruña,Spain,-8.5441729,42.8768606
NCT04594369,Oviedo,Asturias,Spain,-5.8485461,43.3622522
NCT04594369,Badalona,Barcelona,Spain,2.2449607,41.446964
NCT04594369,Santander,Cantabria,Spain,-3.8226402,43.4636346
NCT04594369,Pozuelo de Alarcon,Madrid,Spain,-3.8058517,40.4440627
NCT04594369,Pamplona,Navarra,Spain,-1.6457745,42.812526
NCT04594369,Barcelona,NA,Spain,2.168568,41.3873974
NCT04594369,Barcelona,NA,Spain,2.168568,41.3873974
NCT04594369,Girona,NA,Spain,2.8214264,41.9794005
NCT04594369,L´Hospitalet de Llobregat,NA,Spain,2.1164942,41.3661865
NCT04594369,Madrid,NA,Spain,-3.7037902,40.4167754
NCT04594369,Madrid,NA,Spain,-3.7037902,40.4167754
NCT04594369,Kaohsiung City,NA,Taiwan,120.3014353,22.6272784
NCT04594369,Kaohsiung,NA,Taiwan,120.3014353,22.6272784
NCT04594369,Kaohsiung,NA,Taiwan,120.3014353,22.6272784
NCT04594369,New Taipei City,NA,Taiwan,121.4627868,25.0169826
NCT04594369,Taipei City,NA,Taiwan,121.5654268,25.0329636
NCT04594369,Taipei,NA,Taiwan,121.5654268,25.0329636
NCT04594369,Taipei,NA,Taiwan,121.5654268,25.0329636
NCT04594369,Nakhonnayok,Nakhon Nayok,Thailand,101.2268773,14.2038387
NCT04594369,Muang,Nonthaburi,Thailand,100.5027412,13.8427391
NCT04594369,Bangkok,NA,Thailand,100.5017651,13.7563309
NCT04594369,Khon Kaen,NA,Thailand,102.8236214,16.4321938
